[{"text": "33063 BORDEAUX", "north_east": {"lat": 44.917, "lon": -0.530691}, "code": "33063", "name": "BORDEAUX", "south_west": {"lat": 44.808809, "lon": -0.641773}}, {"text": "33281 MERIGNAC", "north_east": {"lat": 44.863868, "lon": -0.608815}, "code": "33281", "name": "MERIGNAC", "south_west": {"lat": 44.799583, "lon": -0.757291}}, {"text": "33318 PESSAC", "north_east": {"lat": 44.822713, "lon": -0.599019}, "code": "33318", "name": "PESSAC", "south_west": {"lat": 44.750321, "lon": -0.762723}}, {"text": "33522 TALENCE", "north_east": {"lat": 44.824335, "lon": -0.571467}, "code": "33522", "name": "TALENCE", "south_west": {"lat": 44.786429, "lon": -0.610628}}, {"text": "33550 VILLENAVE-D'ORNON", "north_east": {"lat": 44.80773, "lon": -0.509303}, "code": "33550", "name": "VILLENAVE-D'ORNON", "south_west": {"lat": 44.741068, "lon": -0.592991}}, {"text": "33449 SAINT-MEDARD-EN-JALLES", "north_east": {"lat": 44.929966, "lon": -0.677636}, "code": "33449", "name": "SAINT-MEDARD-EN-JALLES", "south_west": {"lat": 44.841395, "lon": -0.886554}}, {"text": "24037 BERGERAC", "north_east": {"lat": 44.901031, "lon": 0.54642}, "code": "24037", "name": "BERGERAC", "south_west": {"lat": 44.80227, "lon": 0.430437}}, {"text": "33039 BEGLES", "north_east": {"lat": 44.823172, "lon": -0.522687}, "code": "33039", "name": "BEGLES", "south_west": {"lat": 44.783094, "lon": -0.574565}}, {"text": "33529 LA TESTE-DE-BUCH", "north_east": {"lat": 44.654733, "lon": -1.097416}, "code": "33529", "name": "LA TESTE-DE-BUCH", "south_west": {"lat": 44.467599, "lon": -1.267715}}, {"text": "33243 LIBOURNE", "north_east": {"lat": 44.953466, "lon": -0.200312}, "code": "33243", "name": "LIBOURNE", "south_west": {"lat": 44.872847, "lon": -0.264084}}, {"text": "33069 LE BOUSCAT", "north_east": {"lat": 44.878309, "lon": -0.575175}, "code": "33069", "name": "LE BOUSCAT", "south_west": {"lat": 44.853068, "lon": -0.631367}}, {"text": "33192 GRADIGNAN", "north_east": {"lat": 44.7937, "lon": -0.584892}, "code": "33192", "name": "GRADIGNAN", "south_west": {"lat": 44.741846, "lon": -0.645864}}, {"text": "33119 CENON", "north_east": {"lat": 44.867892, "lon": -0.503356}, "code": "33119", "name": "CENON", "south_west": {"lat": 44.84239, "lon": -0.543763}}, {"text": "33249 LORMONT", "north_east": {"lat": 44.890391, "lon": -0.493014}, "code": "33249", "name": "LORMONT", "south_west": {"lat": 44.86117, "lon": -0.542656}}, {"text": "33162 EYSINES", "north_east": {"lat": 44.898403, "lon": -0.62126}, "code": "33162", "name": "EYSINES", "south_west": {"lat": 44.858032, "lon": -0.670814}}, {"text": "33199 GUJAN-MESTRAS", "north_east": {"lat": 44.64855, "lon": -1.033847}, "code": "33199", "name": "GUJAN-MESTRAS", "south_west": {"lat": 44.502572, "lon": -1.119191}}, {"text": "47157 MARMANDE", "north_east": {"lat": 44.544149, "lon": 0.228745}, "code": "47157", "name": "MARMANDE", "south_west": {"lat": 44.460804, "lon": 0.106554}}, {"text": "33122 CESTAS", "north_east": {"lat": 44.782798, "lon": -0.63219}, "code": "33122", "name": "CESTAS", "south_west": {"lat": 44.66907, "lon": -0.839764}}, {"text": "33167 FLOIRAC", "north_east": {"lat": 44.848061, "lon": -0.494821}, "code": "33167", "name": "FLOIRAC", "south_west": {"lat": 44.81583, "lon": -0.547302}}, {"text": "33075 BRUGES", "north_east": {"lat": 44.909474, "lon": -0.576089}, "code": "33075", "name": "BRUGES", "south_west": {"lat": 44.867504, "lon": -0.630588}}, {"text": "33056 BLANQUEFORT", "north_east": {"lat": 44.949868, "lon": -0.546495}, "code": "33056", "name": "BLANQUEFORT", "south_west": {"lat": 44.894091, "lon": -0.672021}}, {"text": "33003 AMBARES-ET-LAGRAVE", "north_east": {"lat": 44.98977, "lon": -0.462595}, "code": "33003", "name": "AMBARES-ET-LAGRAVE", "south_west": {"lat": 44.914086, "lon": -0.540029}}, {"text": "40046 BISCARROSSE", "north_east": {"lat": 44.485781, "lon": -1.024231}, "code": "40046", "name": "BISCARROSSE", "south_west": {"lat": 44.33589, "lon": -1.285381}}, {"text": "33005 ANDERNOS-LES-BAINS", "north_east": {"lat": 44.782778, "lon": -1.036688}, "code": "33005", "name": "ANDERNOS-LES-BAINS", "south_west": {"lat": 44.720651, "lon": -1.124137}}, {"text": "33009 ARCACHON", "north_east": {"lat": 44.664975, "lon": -1.138289}, "code": "33009", "name": "ARCACHON", "south_west": {"lat": 44.638702, "lon": -1.206122}}, {"text": "33051 BIGANOS", "north_east": {"lat": 44.700319, "lon": -0.880536}, "code": "33051", "name": "BIGANOS", "south_west": {"lat": 44.619839, "lon": -1.034438}}, {"text": "33366 SAINT-ANDRE-DE-CUBZAC", "north_east": {"lat": 45.020001, "lon": -0.391272}, "code": "33366", "name": "SAINT-ANDRE-DE-CUBZAC", "south_west": {"lat": 44.968066, "lon": -0.484094}}, {"text": "33238 LEOGNAN", "north_east": {"lat": 44.763576, "lon": -0.558222}, "code": "33238", "name": "LEOGNAN", "south_west": {"lat": 44.683073, "lon": -0.676328}}, {"text": "33519 LE TAILLAN-MEDOC", "north_east": {"lat": 44.932028, "lon": -0.642108}, "code": "33519", "name": "LE TAILLAN-MEDOC", "south_west": {"lat": 44.892606, "lon": -0.715722}}, {"text": "47310 TONNEINS", "north_east": {"lat": 44.429532, "lon": 0.375203}, "code": "47310", "name": "TONNEINS", "south_west": {"lat": 44.340293, "lon": 0.285319}}, {"text": "33200 LE HAILLAN", "north_east": {"lat": 44.895673, "lon": -0.660252}, "code": "33200", "name": "LE HAILLAN", "south_west": {"lat": 44.846928, "lon": -0.722508}}, {"text": "33433 SAINT-LOUBES", "north_east": {"lat": 44.955587, "lon": -0.380893}, "code": "33433", "name": "SAINT-LOUBES", "south_west": {"lat": 44.890739, "lon": -0.468526}}, {"text": "33312 PAREMPUYRE", "north_east": {"lat": 44.975287, "lon": -0.538127}, "code": "33312", "name": "PAREMPUYRE", "south_west": {"lat": 44.932996, "lon": -0.629597}}, {"text": "33138 COUTRAS", "north_east": {"lat": 45.071263, "lon": -0.02363}, "code": "33138", "name": "COUTRAS", "south_west": {"lat": 45.012346, "lon": -0.17391}}, {"text": "33236 LEGE-CAP-FERRET", "north_east": {"lat": 44.829568, "lon": -1.036372}, "code": "33236", "name": "LEGE-CAP-FERRET", "south_west": {"lat": 44.617723, "lon": -1.275307}}, {"text": "33227 LANGON", "north_east": {"lat": 44.561331, "lon": -0.210032}, "code": "33227", "name": "LANGON", "south_west": {"lat": 44.509705, "lon": -0.274275}}, {"text": "33284 MIOS", "north_east": {"lat": 44.711694, "lon": -0.759829}, "code": "33284", "name": "MIOS", "south_west": {"lat": 44.510376, "lon": -1.024861}}, {"text": "33273 MARTIGNAS-SUR-JALLE", "north_east": {"lat": 44.866231, "lon": -0.744687}, "code": "33273", "name": "MARTIGNAS-SUR-JALLE", "south_west": {"lat": 44.822198, "lon": -0.855923}}, {"text": "33013 ARTIGUES-PRES-BORDEAUX", "north_east": {"lat": 44.877616, "lon": -0.470589}, "code": "33013", "name": "ARTIGUES-PRES-BORDEAUX", "south_west": {"lat": 44.841232, "lon": -0.505439}}, {"text": "33422 SAINT-JEAN-D'ILLAC", "north_east": {"lat": 44.862693, "lon": -0.721524}, "code": "33422", "name": "SAINT-JEAN-D'ILLAC", "south_west": {"lat": 44.734604, "lon": -0.90764}}, {"text": "33032 BASSENS", "north_east": {"lat": 44.926899, "lon": -0.499816}, "code": "33032", "name": "BASSENS", "south_west": {"lat": 44.886932, "lon": -0.549962}}, {"text": "33096 CARBON-BLANC", "north_east": {"lat": 44.918623, "lon": -0.482374}, "code": "33096", "name": "CARBON-BLANC", "south_west": {"lat": 44.887398, "lon": -0.518908}}, {"text": "33527 LE TEICH", "north_east": {"lat": 44.655028, "lon": -0.959486}, "code": "33527", "name": "LE TEICH", "south_west": {"lat": 44.506617, "lon": -1.093749}}, {"text": "33376 SAINT-AUBIN-DE-MEDOC", "north_east": {"lat": 44.968498, "lon": -0.695517}, "code": "33376", "name": "SAINT-AUBIN-DE-MEDOC", "south_west": {"lat": 44.899594, "lon": -0.801591}}, {"text": "33498 SALLES", "north_east": {"lat": 44.612576, "lon": -0.760028}, "code": "33498", "name": "SALLES", "south_west": {"lat": 44.46091, "lon": -1.017793}}, {"text": "33229 LANTON", "north_east": {"lat": 44.849744, "lon": -0.874353}, "code": "33229", "name": "LANTON", "south_west": {"lat": 44.69264, "lon": -1.086931}}, {"text": "33019 AUDENGE", "north_east": {"lat": 44.761484, "lon": -0.832844}, "code": "33019", "name": "AUDENGE", "south_west": {"lat": 44.666184, "lon": -1.073462}}, {"text": "33011 ARES", "north_east": {"lat": 44.849579, "lon": -1.001487}, "code": "33011", "name": "ARES", "south_west": {"lat": 44.750238, "lon": -1.167036}}, {"text": "33322 LE PIAN-MEDOC", "north_east": {"lat": 44.983741, "lon": -0.620528}, "code": "33322", "name": "LE PIAN-MEDOC", "south_west": {"lat": 44.926735, "lon": -0.727237}}, {"text": "33240 LESPARRE-MEDOC", "north_east": {"lat": 45.340783, "lon": -0.871002}, "code": "33240", "name": "LESPARRE-MEDOC", "south_west": {"lat": 45.219011, "lon": -0.975771}}, {"text": "24294 MONTPON-MENESTEROL", "north_east": {"lat": 45.060738, "lon": 0.208349}, "code": "24294", "name": "MONTPON-MENESTEROL", "south_west": {"lat": 44.970082, "lon": 0.084842}}, {"text": "24372 SAINT-ASTIER", "north_east": {"lat": 45.177502, "lon": 0.566081}, "code": "24372", "name": "SAINT-ASTIER", "south_west": {"lat": 45.109316, "lon": 0.461566}}, {"text": "33207 IZON", "north_east": {"lat": 44.940973, "lon": -0.316082}, "code": "33207", "name": "IZON", "south_west": {"lat": 44.89741, "lon": -0.395009}}, {"text": "40217 PARENTIS-EN-BORN", "north_east": {"lat": 44.424332, "lon": -0.980228}, "code": "40217", "name": "PARENTIS-EN-BORN", "south_west": {"lat": 44.280803, "lon": -1.200828}}, {"text": "33393 SAINT-DENIS-DE-PILE", "north_east": {"lat": 45.01645, "lon": -0.126356}, "code": "33393", "name": "SAINT-DENIS-DE-PILE", "south_west": {"lat": 44.961103, "lon": -0.237225}}, {"text": "33090 CANEJAN", "north_east": {"lat": 44.778533, "lon": -0.630932}, "code": "33090", "name": "CANEJAN", "south_west": {"lat": 44.734281, "lon": -0.686912}}, {"text": "33314 PAUILLAC", "north_east": {"lat": 45.230822, "lon": -0.712174}, "code": "33314", "name": "PAUILLAC", "south_west": {"lat": 45.166111, "lon": -0.797583}}, {"text": "33080 CADAUJAC", "north_east": {"lat": 44.769382, "lon": -0.499196}, "code": "33080", "name": "CADAUJAC", "south_west": {"lat": 44.722399, "lon": -0.566787}}, {"text": "33058 BLAYE", "north_east": {"lat": 45.157022, "lon": -0.640762}, "code": "33058", "name": "BLAYE", "south_west": {"lat": 45.102321, "lon": -0.69394}}, {"text": "33036 BAZAS", "north_east": {"lat": 44.475953, "lon": -0.155777}, "code": "33036", "name": "BAZAS", "south_west": {"lat": 44.403088, "lon": -0.276809}}, {"text": "33397 SAINTE-EULALIE", "north_east": {"lat": 44.922873, "lon": -0.453694}, "code": "33397", "name": "SAINTE-EULALIE", "south_west": {"lat": 44.882131, "lon": -0.505914}}, {"text": "33029 LE BARP", "north_east": {"lat": 44.696525, "lon": -0.659264}, "code": "33029", "name": "LE BARP", "south_west": {"lat": 44.562664, "lon": -0.827565}}, {"text": "33324 PINEUILH", "north_east": {"lat": 44.857378, "lon": 0.264155}, "code": "33324", "name": "PINEUILH", "south_west": {"lat": 44.789743, "lon": 0.191102}}, {"text": "33042 BELIN-BELIET", "north_east": {"lat": 44.575907, "lon": -0.678193}, "code": "33042", "name": "BELIN-BELIET", "south_west": {"lat": 44.416075, "lon": -0.927808}}, {"text": "33214 LACANAU", "north_east": {"lat": 45.076136, "lon": -0.970691}, "code": "33214", "name": "LACANAU", "south_west": {"lat": 44.902066, "lon": -1.225553}}, {"text": "33555 MARCHEPRIME", "north_east": {"lat": 44.737838, "lon": -0.801788}, "code": "33555", "name": "MARCHEPRIME", "south_west": {"lat": 44.668637, "lon": -0.90917}}, {"text": "33483 SAINT-SULPICE-ET-CAMEYRAC", "north_east": {"lat": 44.930555, "lon": -0.349928}, "code": "33483", "name": "SAINT-SULPICE-ET-CAMEYRAC", "south_west": {"lat": 44.881197, "lon": -0.413068}}, {"text": "33352 LA REOLE", "north_east": {"lat": 44.60822, "lon": -0.004162}, "code": "33352", "name": "LA REOLE", "south_west": {"lat": 44.564641, "lon": -0.085802}}, {"text": "33424 SAINT-LAURENT-MEDOC", "north_east": {"lat": 45.212718, "lon": -0.755928}, "code": "33424", "name": "SAINT-LAURENT-MEDOC", "south_west": {"lat": 45.069739, "lon": -0.956782}}, {"text": "33535 TRESSES", "north_east": {"lat": 44.866206, "lon": -0.44691}, "code": "33535", "name": "TRESSES", "south_west": {"lat": 44.82418, "lon": -0.50405}}, {"text": "33256 LUDON-MEDOC", "north_east": {"lat": 44.999186, "lon": -0.540055}, "code": "33256", "name": "LUDON-MEDOC", "south_west": {"lat": 44.963199, "lon": -0.641046}}, {"text": "33140 CREON", "north_east": {"lat": 44.787581, "lon": -0.319696}, "code": "33140", "name": "CREON", "south_west": {"lat": 44.749464, "lon": -0.367653}}, {"text": "24340 PRIGONRIEUX", "north_east": {"lat": 44.902572, "lon": 0.4463}, "code": "24340", "name": "PRIGONRIEUX", "south_west": {"lat": 44.83533, "lon": 0.3683}}, {"text": "24352 RIBERAC", "north_east": {"lat": 45.271904, "lon": 0.394158}, "code": "24352", "name": "RIBERAC", "south_west": {"lat": 45.215159, "lon": 0.288106}}, {"text": "33213 LA BREDE", "north_east": {"lat": 44.700553, "lon": -0.485579}, "code": "33213", "name": "LA BREDE", "south_west": {"lat": 44.655109, "lon": -0.594661}}, {"text": "33104 CASTELNAU-DE-MEDOC", "north_east": {"lat": 45.041795, "lon": -0.775732}, "code": "33104", "name": "CASTELNAU-DE-MEDOC", "south_west": {"lat": 44.963042, "lon": -0.853285}}, {"text": "33099 CARIGNAN-DE-BORDEAUX", "north_east": {"lat": 44.826024, "lon": -0.449824}, "code": "33099", "name": "CARIGNAN-DE-BORDEAUX", "south_west": {"lat": 44.790204, "lon": -0.499417}}, {"text": "24309 NEUVIC", "north_east": {"lat": 45.123761, "lon": 0.520168}, "code": "24309", "name": "NEUVIC", "south_west": {"lat": 45.054744, "lon": 0.4266}}, {"text": "33363 SADIRAC", "north_east": {"lat": 44.811535, "lon": -0.350157}, "code": "33363", "name": "SADIRAC", "south_west": {"lat": 44.762949, "lon": -0.434799}}, {"text": "33262 MACAU", "north_east": {"lat": 45.043546, "lon": -0.556831}, "code": "33262", "name": "MACAU", "south_west": {"lat": 44.982109, "lon": -0.663857}}, {"text": "33539 VAYRES", "north_east": {"lat": 44.915369, "lon": -0.298248}, "code": "33539", "name": "VAYRES", "south_west": {"lat": 44.866113, "lon": -0.353225}}, {"text": "33234 LATRESNE", "north_east": {"lat": 44.807894, "lon": -0.469159}, "code": "33234", "name": "LATRESNE", "south_west": {"lat": 44.773084, "lon": -0.526565}}, {"text": "40287 SANGUINET", "north_east": {"lat": 44.535872, "lon": -0.976795}, "code": "40287", "name": "SANGUINET", "south_west": {"lat": 44.4165, "lon": -1.203402}}, {"text": "47168 MIRAMONT-DE-GUYENNE", "north_east": {"lat": 44.61717, "lon": 0.388214}, "code": "47168", "name": "MIRAMONT-DE-GUYENNE", "south_west": {"lat": 44.558805, "lon": 0.326533}}, {"text": "33203 HOURTIN", "north_east": {"lat": 45.25896, "lon": -0.914495}, "code": "33203", "name": "HOURTIN", "south_west": {"lat": 45.111404, "lon": -1.196175}}, {"text": "17240 MONTENDRE", "north_east": {"lat": 45.321803, "lon": -0.336285}, "code": "17240", "name": "MONTENDRE", "south_west": {"lat": 45.252268, "lon": -0.435828}}, {"text": "33478 SAINT-SEURIN-SUR-L'ISLE", "north_east": {"lat": 45.026651, "lon": 0.02133}, "code": "33478", "name": "SAINT-SEURIN-SUR-L'ISLE", "south_west": {"lat": 44.990035, "lon": -0.028457}}, {"text": "33065 BOULIAC", "north_east": {"lat": 44.830722, "lon": -0.473283}, "code": "33065", "name": "BOULIAC", "south_west": {"lat": 44.802277, "lon": -0.533147}}, {"text": "33012 ARSAC", "north_east": {"lat": 45.017359, "lon": -0.646701}, "code": "33012", "name": "ARSAC", "south_west": {"lat": 44.955412, "lon": -0.757702}}, {"text": "33389 SAINT-CIERS-SUR-GIRONDE", "north_east": {"lat": 45.331666, "lon": -0.576107}, "code": "33389", "name": "SAINT-CIERS-SUR-GIRONDE", "south_west": {"lat": 45.257657, "lon": -0.715813}}, {"text": "47233 SAINTE-BAZEILLE", "north_east": {"lat": 44.561786, "lon": 0.139981}, "code": "47233", "name": "SAINTE-BAZEILLE", "south_west": {"lat": 44.499663, "lon": 0.071234}}, {"text": "33108 CASTILLON-LA-BATAILLE", "north_east": {"lat": 44.876053, "lon": 0.00264}, "code": "33108", "name": "CASTILLON-LA-BATAILLE", "south_west": {"lat": 44.847989, "lon": -0.052051}}, {"text": "24299 MUSSIDAN", "north_east": {"lat": 45.042608, "lon": 0.37901}, "code": "24299", "name": "MUSSIDAN", "south_west": {"lat": 45.017354, "lon": 0.349592}}, {"text": "33004 AMBES", "north_east": {"lat": 45.043353, "lon": -0.493681}, "code": "33004", "name": "AMBES", "south_west": {"lat": 44.982637, "lon": -0.601717}}, {"text": "24354 LA ROCHE-CHALAIS", "north_east": {"lat": 45.186986, "lon": 0.144374}, "code": "24354", "name": "LA ROCHE-CHALAIS", "south_west": {"lat": 45.07171, "lon": -0.045295}}, {"text": "33179 GALGON", "north_east": {"lat": 45.015371, "lon": -0.245038}, "code": "33179", "name": "GALGON", "south_west": {"lat": 44.966764, "lon": -0.312225}}, {"text": "33473 SAINT-SAVIN", "north_east": {"lat": 45.204386, "lon": -0.395855}, "code": "33473", "name": "SAINT-SAVIN", "south_west": {"lat": 45.117189, "lon": -0.490918}}, {"text": "33448 SAINT-MEDARD-D'EYRANS", "north_east": {"lat": 44.737424, "lon": -0.478152}, "code": "33448", "name": "SAINT-MEDARD-D'EYRANS", "south_west": {"lat": 44.691062, "lon": -0.548849}}, {"text": "33293 MONTUSSAN", "north_east": {"lat": 44.902294, "lon": -0.40543}, "code": "33293", "name": "MONTUSSAN", "south_west": {"lat": 44.866326, "lon": -0.452598}}, {"text": "33085 CAMBLANES-ET-MEYNAC", "north_east": {"lat": 44.780604, "lon": -0.436466}, "code": "33085", "name": "CAMBLANES-ET-MEYNAC", "south_west": {"lat": 44.747685, "lon": -0.512025}}, {"text": "33381 SAINT-CAPRAIS-DE-BORDEAUX", "north_east": {"lat": 44.772786, "lon": -0.399335}, "code": "33381", "name": "SAINT-CAPRAIS-DE-BORDEAUX", "south_west": {"lat": 44.736603, "lon": -0.453966}}, {"text": "33165 FARGUES-SAINT-HILAIRE", "north_east": {"lat": 44.837482, "lon": -0.420904}, "code": "33165", "name": "FARGUES-SAINT-HILAIRE", "south_west": {"lat": 44.801501, "lon": -0.460495}}, {"text": "24167 EYMET", "north_east": {"lat": 44.708821, "lon": 0.452427}, "code": "24167", "name": "EYMET", "south_west": {"lat": 44.643509, "lon": 0.347452}}, {"text": "33417 SAINTE-HELENE", "north_east": {"lat": 45.034834, "lon": -0.814593}, "code": "33417", "name": "SAINTE-HELENE", "south_west": {"lat": 44.895371, "lon": -0.998267}}, {"text": "33327 PODENSAC", "north_east": {"lat": 44.666355, "lon": -0.332095}, "code": "33327", "name": "PODENSAC", "south_west": {"lat": 44.62933, "lon": -0.382887}}, {"text": "33330 POMPIGNAC", "north_east": {"lat": 44.872984, "lon": -0.408125}, "code": "33330", "name": "POMPIGNAC", "south_west": {"lat": 44.830855, "lon": -0.459924}}, {"text": "33533 TOULENNE", "north_east": {"lat": 44.584891, "lon": -0.252572}, "code": "33533", "name": "TOULENNE", "south_west": {"lat": 44.5465, "lon": -0.295157}}, {"text": "33402 SAINTE-FOY-LA-GRANDE", "north_east": {"lat": 44.844476, "lon": 0.222385}, "code": "33402", "name": "SAINTE-FOY-LA-GRANDE", "south_west": {"lat": 44.838188, "lon": 0.209594}}, {"text": "24222 LA FORCE", "north_east": {"lat": 44.909555, "lon": 0.384299}, "code": "24222", "name": "LA FORCE", "south_west": {"lat": 44.848456, "lon": 0.331563}}, {"text": "24335 PORT-SAINTE-FOY-ET-PONCHAPT", "north_east": {"lat": 44.91259, "lon": 0.245587}, "code": "24335", "name": "PORT-SAINTE-FOY-ET-PONCHAPT", "south_west": {"lat": 44.820351, "lon": 0.170487}}, {"text": "33081 CADILLAC", "north_east": {"lat": 44.654098, "lon": -0.286131}, "code": "33081", "name": "CADILLAC", "south_west": {"lat": 44.627046, "lon": -0.329296}}, {"text": "33274 MARTILLAC", "north_east": {"lat": 44.743798, "lon": -0.521559}, "code": "33274", "name": "MARTILLAC", "south_west": {"lat": 44.691899, "lon": -0.595916}}, {"text": "33333 LE PORGE", "north_east": {"lat": 44.927223, "lon": -1.033583}, "code": "33333", "name": "LE PORGE", "south_west": {"lat": 44.808938, "lon": -1.241357}}, {"text": "47065 CLAIRAC", "north_east": {"lat": 44.401732, "lon": 0.448623}, "code": "47065", "name": "CLAIRAC", "south_west": {"lat": 44.331013, "lon": 0.333365}}, {"text": "33554 YVRAC", "north_east": {"lat": 44.898667, "lon": -0.442398}, "code": "33554", "name": "YVRAC", "south_west": {"lat": 44.863389, "lon": -0.49832}}, {"text": "33248 LISTRAC-MEDOC", "north_east": {"lat": 45.112789, "lon": -0.737789}, "code": "33248", "name": "LISTRAC-MEDOC", "south_west": {"lat": 45.024246, "lon": -0.915193}}, {"text": "33219 LA LANDE-DE-FRONSAC", "north_east": {"lat": 45.000118, "lon": -0.354812}, "code": "33219", "name": "LA LANDE-DE-FRONSAC", "south_west": {"lat": 44.968697, "lon": -0.406925}}, {"text": "33233 LARUSCADE", "north_east": {"lat": 45.172216, "lon": -0.294684}, "code": "33233", "name": "LARUSCADE", "south_west": {"lat": 45.069047, "lon": -0.386049}}, {"text": "33540 VENDAYS-MONTALIVET", "north_east": {"lat": 45.395249, "lon": -1.021164}, "code": "33540", "name": "VENDAYS-MONTALIVET", "south_west": {"lat": 45.285071, "lon": -1.1724}}, {"text": "33447 SAINT-MEDARD-DE-GUIZIERES", "north_east": {"lat": 45.027939, "lon": -0.041111}, "code": "33447", "name": "SAINT-MEDARD-DE-GUIZIERES", "south_west": {"lat": 44.994378, "lon": -0.106123}}, {"text": "33334 PORTETS", "north_east": {"lat": 44.707906, "lon": -0.392605}, "code": "33334", "name": "PORTETS", "south_west": {"lat": 44.648392, "lon": -0.459352}}, {"text": "33123 CEZAC", "north_east": {"lat": 45.11076, "lon": -0.353897}, "code": "33123", "name": "CEZAC", "south_west": {"lat": 45.057582, "lon": -0.48111}}, {"text": "24225 LAMONZIE-SAINT-MARTIN", "north_east": {"lat": 44.856211, "lon": 0.426312}, "code": "24225", "name": "LAMONZIE-SAINT-MARTIN", "south_west": {"lat": 44.811886, "lon": 0.34272}}, {"text": "33037 BEAUTIRAN", "north_east": {"lat": 44.722275, "lon": -0.43585}, "code": "33037", "name": "BEAUTIRAN", "south_west": {"lat": 44.686546, "lon": -0.482971}}, {"text": "33097 CARCANS", "north_east": {"lat": 45.139267, "lon": -0.882495}, "code": "33097", "name": "CARCANS", "south_west": {"lat": 45.018121, "lon": -1.198826}}, {"text": "33154 LES EGLISOTTES-ET-CHALAURES", "north_east": {"lat": 45.119607, "lon": 0.009443}, "code": "33154", "name": "LES EGLISOTTES-ET-CHALAURES", "south_west": {"lat": 45.069192, "lon": -0.086649}}, {"text": "33067 BOURG", "north_east": {"lat": 45.063083, "lon": -0.505835}, "code": "33067", "name": "BOURG", "south_west": {"lat": 45.015165, "lon": -0.592018}}, {"text": "33492 SAINT-YZAN-DE-SOUDIAC", "north_east": {"lat": 45.179799, "lon": -0.382749}, "code": "33492", "name": "SAINT-YZAN-DE-SOUDIAC", "south_west": {"lat": 45.131367, "lon": -0.427733}}, {"text": "33337 PREIGNAC", "north_east": {"lat": 44.601059, "lon": -0.281109}, "code": "33337", "name": "PREIGNAC", "south_west": {"lat": 44.542352, "lon": -0.339345}}, {"text": "33496 SALLEBOEUF", "north_east": {"lat": 44.864913, "lon": -0.358787}, "code": "33496", "name": "SALLEBOEUF", "south_west": {"lat": 44.818397, "lon": -0.425112}}, {"text": "33226 LANGOIRAN", "north_east": {"lat": 44.723427, "lon": -0.342018}, "code": "33226", "name": "LANGOIRAN", "south_west": {"lat": 44.690281, "lon": -0.405544}}, {"text": "33022 AVENSAN", "north_east": {"lat": 45.061951, "lon": -0.705851}, "code": "33022", "name": "AVENSAN", "south_west": {"lat": 44.944893, "lon": -0.808455}}, {"text": "33030 BARSAC", "north_east": {"lat": 44.632426, "lon": -0.29832}, "code": "33030", "name": "BARSAC", "south_west": {"lat": 44.57474, "lon": -0.354621}}, {"text": "33109 CASTRES-GIRONDE", "north_east": {"lat": 44.704267, "lon": -0.431864}, "code": "33109", "name": "CASTRES-GIRONDE", "south_west": {"lat": 44.66795, "lon": -0.480577}}, {"text": "33143 CUBZAC-LES-PONTS", "north_east": {"lat": 44.982082, "lon": -0.411305}, "code": "33143", "name": "CUBZAC-LES-PONTS", "south_west": {"lat": 44.952923, "lon": -0.472726}}, {"text": "33077 CABANAC-ET-VILLAGRAINS", "north_east": {"lat": 44.633153, "lon": -0.463638}, "code": "33077", "name": "CABANAC-ET-VILLAGRAINS", "south_west": {"lat": 44.54454, "lon": -0.618415}}, {"text": "33501 SAUCATS", "north_east": {"lat": 44.693019, "lon": -0.541923}, "code": "33501", "name": "SAUCATS", "south_west": {"lat": 44.599789, "lon": -0.730921}}, {"text": "33474 SAINT-SELVE", "north_east": {"lat": 44.689814, "lon": -0.440035}, "code": "33474", "name": "SAINT-SELVE", "south_west": {"lat": 44.626557, "lon": -0.505159}}, {"text": "33413 SAINT-GERMAIN-DU-PUCH", "north_east": {"lat": 44.872487, "lon": -0.302703}, "code": "33413", "name": "SAINT-GERMAIN-DU-PUCH", "south_west": {"lat": 44.833707, "lon": -0.364512}}, {"text": "33225 LANDIRAS", "north_east": {"lat": 44.621019, "lon": -0.362815}, "code": "33225", "name": "LANDIRAS", "south_west": {"lat": 44.521952, "lon": -0.506462}}, {"text": "24370 SAINT-ANTOINE-DE-BREUILH", "north_east": {"lat": 44.865889, "lon": 0.184289}, "code": "24370", "name": "SAINT-ANTOINE-DE-BREUILH", "south_west": {"lat": 44.818959, "lon": 0.093047}}, {"text": "40332 YCHOUX", "north_east": {"lat": 44.437065, "lon": -0.895988}, "code": "40332", "name": "YCHOUX", "south_west": {"lat": 44.270169, "lon": -1.029867}}, {"text": "33146 CUSSAC-FORT-MEDOC", "north_east": {"lat": 45.145179, "lon": -0.686594}, "code": "33146", "name": "CUSSAC-FORT-MEDOC", "south_west": {"lat": 45.095596, "lon": -0.766105}}, {"text": "33349 QUINSAC", "north_east": {"lat": 44.76637, "lon": -0.464407}, "code": "33349", "name": "QUINSAC", "south_west": {"lat": 44.735268, "lon": -0.51277}}, {"text": "33049 BEYCHAC-ET-CAILLAU", "north_east": {"lat": 44.890066, "lon": -0.3305}, "code": "33049", "name": "BEYCHAC-ET-CAILLAU", "south_west": {"lat": 44.850493, "lon": -0.414812}}, {"text": "24442 SAINT-LEON-SUR-L'ISLE", "north_east": {"lat": 45.138696, "lon": 0.536809}, "code": "24442", "name": "SAINT-LEON-SUR-L'ISLE", "south_west": {"lat": 45.096576, "lon": 0.459498}}, {"text": "33435 SAINT-MACAIRE", "north_east": {"lat": 44.569243, "lon": -0.21682}, "code": "33435", "name": "SAINT-MACAIRE", "south_west": {"lat": 44.55692, "lon": -0.252445}}, {"text": "33177 GAILLAN-EN-MEDOC", "north_east": {"lat": 45.350847, "lon": -0.940998}, "code": "33177", "name": "GAILLAN-EN-MEDOC", "south_west": {"lat": 45.273768, "lon": -1.049247}}, {"text": "33394 SAINT-EMILION", "north_east": {"lat": 44.932536, "lon": -0.128535}, "code": "33394", "name": "SAINT-EMILION", "south_west": {"lat": 44.856118, "lon": -0.213219}}, {"text": "33434 SAINT-LOUIS-DE-MONTFERRAND", "north_east": {"lat": 44.989829, "lon": -0.51339}, "code": "33434", "name": "SAINT-LOUIS-DE-MONTFERRAND", "south_west": {"lat": 44.923458, "lon": -0.553974}}, {"text": "33341 PUGNAC", "north_east": {"lat": 45.102109, "lon": -0.470315}, "code": "33341", "name": "PUGNAC", "south_west": {"lat": 45.061823, "lon": -0.531292}}, {"text": "33523 TARGON", "north_east": {"lat": 44.769224, "lon": -0.225668}, "code": "33523", "name": "TARGON", "south_west": {"lat": 44.704093, "lon": -0.312945}}, {"text": "33382 SAINT-CHRISTOLY-DE-BLAYE", "north_east": {"lat": 45.195149, "lon": -0.449117}, "code": "33382", "name": "SAINT-CHRISTOLY-DE-BLAYE", "south_west": {"lat": 45.102712, "lon": -0.544868}}, {"text": "33437 SAINT-MAGNE-DE-CASTILLON", "north_east": {"lat": 44.875969, "lon": -0.039354}, "code": "33437", "name": "SAINT-MAGNE-DE-CASTILLON", "south_west": {"lat": 44.833174, "lon": -0.101695}}, {"text": "33466 SAINT-QUENTIN-DE-BARON", "north_east": {"lat": 44.833572, "lon": -0.251562}, "code": "33466", "name": "SAINT-QUENTIN-DE-BARON", "south_west": {"lat": 44.802738, "lon": -0.309419}}, {"text": "33120 CERONS", "north_east": {"lat": 44.642622, "lon": -0.318578}, "code": "33120", "name": "CERONS", "south_west": {"lat": 44.61067, "lon": -0.361572}}, {"text": "17309 SAINT-AIGULIN", "north_east": {"lat": 45.195861, "lon": 0.006996}, "code": "17309", "name": "SAINT-AIGULIN", "south_west": {"lat": 45.138963, "lon": -0.104544}}, {"text": "33015 ARVEYRES", "north_east": {"lat": 44.919851, "lon": -0.245357}, "code": "33015", "name": "ARVEYRES", "south_west": {"lat": 44.860668, "lon": -0.315115}}, {"text": "47054 CASTELMORON-SUR-LOT", "north_east": {"lat": 44.439497, "lon": 0.519235}, "code": "47054", "name": "CASTELMORON-SUR-LOT", "south_west": {"lat": 44.37547, "lon": 0.445506}}, {"text": "33047 BERSON", "north_east": {"lat": 45.142384, "lon": -0.537119}, "code": "33047", "name": "BERSON", "south_west": {"lat": 45.096677, "lon": -0.619603}}, {"text": "33125 CISSAC-MEDOC", "north_east": {"lat": 45.24306, "lon": -0.791321}, "code": "33125", "name": "CISSAC-MEDOC", "south_west": {"lat": 45.18634, "lon": -0.89136}}, {"text": "33297 MOULIS-EN-MEDOC", "north_east": {"lat": 45.092057, "lon": -0.726034}, "code": "33297", "name": "MOULIS-EN-MEDOC", "south_west": {"lat": 45.018034, "lon": -0.869334}}, {"text": "33506 SAUVETERRE-DE-GUYENNE", "north_east": {"lat": 44.736173, "lon": -0.021132}, "code": "33506", "name": "SAUVETERRE-DE-GUYENNE", "south_west": {"lat": 44.665654, "lon": -0.12425}}, {"text": "33118 CENAC", "north_east": {"lat": 44.800887, "lon": -0.434485}, "code": "33118", "name": "CENAC", "south_west": {"lat": 44.768592, "lon": -0.479772}}, {"text": "33485 SAINTE-TERRE", "north_east": {"lat": 44.851736, "lon": -0.081862}, "code": "33485", "name": "SAINTE-TERRE", "south_west": {"lat": 44.813073, "lon": -0.159596}}, {"text": "33001 ABZAC", "north_east": {"lat": 45.034503, "lon": -0.087708}, "code": "33001", "name": "ABZAC", "south_west": {"lat": 44.989108, "lon": -0.170024}}, {"text": "33321 PEUJARD", "north_east": {"lat": 45.063997, "lon": -0.407059}, "code": "33321", "name": "PEUJARD", "south_west": {"lat": 45.029805, "lon": -0.456651}}, {"text": "33185 GENISSAC", "north_east": {"lat": 44.884126, "lon": -0.219654}, "code": "33185", "name": "GENISSAC", "south_west": {"lat": 44.837174, "lon": -0.279546}}, {"text": "16073 CHALAIS", "north_east": {"lat": 45.310056, "lon": 0.064561}, "code": "16073", "name": "CHALAIS", "south_west": {"lat": 45.238353, "lon": 0.009654}}, {"text": "33159 ETAULIERS", "north_east": {"lat": 45.24285, "lon": -0.55226}, "code": "33159", "name": "ETAULIERS", "south_west": {"lat": 45.201468, "lon": -0.61853}}, {"text": "33395 SAINT-ESTEPHE", "north_east": {"lat": 45.284412, "lon": -0.746776}, "code": "33395", "name": "SAINT-ESTEPHE", "south_west": {"lat": 45.221669, "lon": -0.818633}}, {"text": "24553 TOCANE-SAINT-APRE", "north_east": {"lat": 45.269999, "lon": 0.548292}, "code": "24553", "name": "TOCANE-SAINT-APRE", "south_west": {"lat": 45.202097, "lon": 0.452051}}, {"text": "33484 SAINT-SYMPHORIEN", "north_east": {"lat": 44.490075, "lon": -0.456948}, "code": "33484", "name": "SAINT-SYMPHORIEN", "south_west": {"lat": 44.361005, "lon": -0.648038}}, {"text": "47326 VIRAZEIL", "north_east": {"lat": 44.539032, "lon": 0.27722}, "code": "47326", "name": "VIRAZEIL", "south_west": {"lat": 44.484211, "lon": 0.202209}}, {"text": "33218 LAGORCE", "north_east": {"lat": 45.115391, "lon": -0.106911}, "code": "33218", "name": "LAGORCE", "south_west": {"lat": 45.046161, "lon": -0.214038}}, {"text": "24487 SAINT-PIERRE-D'EYRAUD", "north_east": {"lat": 44.915949, "lon": 0.354571}, "code": "24487", "name": "SAINT-PIERRE-D'EYRAUD", "south_west": {"lat": 44.838794, "lon": 0.285572}}, {"text": "24462 SAINT-MEDARD-DE-MUSSIDAN", "north_east": {"lat": 45.050613, "lon": 0.363248}, "code": "24462", "name": "SAINT-MEDARD-DE-MUSSIDAN", "south_west": {"lat": 44.983024, "lon": 0.284122}}, {"text": "24264 MENESPLET", "north_east": {"lat": 45.027788, "lon": 0.142186}, "code": "24264", "name": "MENESPLET", "south_west": {"lat": 44.977424, "lon": 0.067934}}, {"text": "33198 GUITRES", "north_east": {"lat": 45.053622, "lon": -0.159048}, "code": "33198", "name": "GUITRES", "south_west": {"lat": 45.032899, "lon": -0.210917}}, {"text": "33307 NOAILLAN", "north_east": {"lat": 44.51234, "lon": -0.305934}, "code": "33307", "name": "NOAILLAN", "south_west": {"lat": 44.45114, "lon": -0.429676}}, {"text": "33290 MONTAGNE", "north_east": {"lat": 44.96736, "lon": -0.074274}, "code": "33290", "name": "MONTAGNE", "south_west": {"lat": 44.897402, "lon": -0.186601}}, {"text": "33438 SAINT-MAIXANT", "north_east": {"lat": 44.602664, "lon": -0.218932}, "code": "33438", "name": "SAINT-MAIXANT", "south_west": {"lat": 44.558675, "lon": -0.27627}}, {"text": "33164 FARGUES", "north_east": {"lat": 44.56567, "lon": -0.260105}, "code": "33164", "name": "FARGUES", "south_west": {"lat": 44.507227, "lon": -0.324762}}, {"text": "33355 RIONS", "north_east": {"lat": 44.685774, "lon": -0.288046}, "code": "33355", "name": "RIONS", "south_west": {"lat": 44.651093, "lon": -0.371427}}, {"text": "47110 GONTAUD-DE-NOGARET", "north_east": {"lat": 44.490449, "lon": 0.333629}, "code": "47110", "name": "GONTAUD-DE-NOGARET", "south_west": {"lat": 44.427922, "lon": 0.236161}}, {"text": "33415 SAINT-GERVAIS", "north_east": {"lat": 45.029657, "lon": -0.443257}, "code": "33415", "name": "SAINT-GERVAIS", "south_west": {"lat": 45.002342, "lon": -0.492376}}, {"text": "33315 LES PEINTURES", "north_east": {"lat": 45.085371, "lon": -0.054136}, "code": "33315", "name": "LES PEINTURES", "south_west": {"lat": 45.042218, "lon": -0.129127}}, {"text": "33114 CAVIGNAC", "north_east": {"lat": 45.115308, "lon": -0.353443}, "code": "33114", "name": "CAVIGNAC", "south_west": {"lat": 45.080133, "lon": -0.404176}}, {"text": "33454 SAINT-MORILLON", "north_east": {"lat": 44.664995, "lon": -0.483169}, "code": "33454", "name": "SAINT-MORILLON", "south_west": {"lat": 44.610104, "lon": -0.564656}}, {"text": "24194 GARDONNE", "north_east": {"lat": 44.846413, "lon": 0.359702}, "code": "24194", "name": "GARDONNE", "south_west": {"lat": 44.81332, "lon": 0.299992}}, {"text": "33439 SAINT-MARIENS", "north_east": {"lat": 45.140932, "lon": -0.376305}, "code": "33439", "name": "SAINT-MARIENS", "south_west": {"lat": 45.10455, "lon": -0.442624}}, {"text": "47024 BEAUPUY", "north_east": {"lat": 44.55225, "lon": 0.169052}, "code": "47024", "name": "BEAUPUY", "south_west": {"lat": 44.512598, "lon": 0.12169}}, {"text": "33268 MARGAUX", "north_east": {"lat": 45.060783, "lon": -0.641464}, "code": "33268", "name": "MARGAUX", "south_west": {"lat": 45.033189, "lon": -0.699067}}, {"text": "17241 MONTGUYON", "north_east": {"lat": 45.239717, "lon": -0.136656}, "code": "17241", "name": "MONTGUYON", "south_west": {"lat": 45.174162, "lon": -0.199045}}, {"text": "33480 SAINT-SULPICE-DE-FALEYRENS", "north_east": {"lat": 44.891131, "lon": -0.157777}, "code": "33480", "name": "SAINT-SULPICE-DE-FALEYRENS", "south_west": {"lat": 44.831734, "lon": -0.221312}}, {"text": "33289 MONSEGUR", "north_east": {"lat": 44.664869, "lon": 0.11608}, "code": "33289", "name": "MONSEGUR", "south_west": {"lat": 44.629982, "lon": 0.055703}}, {"text": "24266 MENSIGNAC", "north_east": {"lat": 45.249155, "lon": 0.600947}, "code": "24266", "name": "MENSIGNAC", "south_west": {"lat": 45.191889, "lon": 0.512144}}, {"text": "33517 SOUSSANS", "north_east": {"lat": 45.079666, "lon": -0.651416}, "code": "33517", "name": "SOUSSANS", "south_west": {"lat": 45.03082, "lon": -0.733913}}, {"text": "33378 SAINT-AVIT-SAINT-NAZAIRE", "north_east": {"lat": 44.873811, "lon": 0.316032}, "code": "33378", "name": "SAINT-AVIT-SAINT-NAZAIRE", "south_west": {"lat": 44.822851, "lon": 0.239023}}, {"text": "33073 BRAUD-ET-SAINT-LOUIS", "north_east": {"lat": 45.291913, "lon": -0.577466}, "code": "33073", "name": "BRAUD-ET-SAINT-LOUIS", "south_west": {"lat": 45.220726, "lon": -0.700134}}, {"text": "24182 LE FLEIX", "north_east": {"lat": 44.897407, "lon": 0.306983}, "code": "24182", "name": "LE FLEIX", "south_west": {"lat": 44.85905, "lon": 0.222029}}, {"text": "33339 PRIGNAC-ET-MARCAMPS", "north_east": {"lat": 45.053422, "lon": -0.471934}, "code": "33339", "name": "PRIGNAC-ET-MARCAMPS", "south_west": {"lat": 45.002066, "lon": -0.526935}}, {"text": "33387 SAINT-CIERS-D'ABZAC", "north_east": {"lat": 45.058175, "lon": -0.266016}, "code": "33387", "name": "SAINT-CIERS-D'ABZAC", "south_west": {"lat": 45.010686, "lon": -0.317368}}, {"text": "33495 SALIGNAC", "north_east": {"lat": 45.047717, "lon": -0.347648}, "code": "33495", "name": "SALIGNAC", "south_west": {"lat": 44.99528, "lon": -0.397968}}, {"text": "33351 REIGNAC", "north_east": {"lat": 45.262721, "lon": -0.473245}, "code": "33351", "name": "REIGNAC", "south_west": {"lat": 45.195721, "lon": -0.565021}}, {"text": "24376 SAINT-AULAYE", "north_east": {"lat": 45.216949, "lon": 0.177775}, "code": "24376", "name": "SAINT-AULAYE", "south_west": {"lat": 45.145318, "lon": 0.090616}}, {"text": "33425 SAINT-LAURENT-D'ARCE", "north_east": {"lat": 45.061968, "lon": -0.447869}, "code": "33425", "name": "SAINT-LAURENT-D'ARCE", "south_west": {"lat": 45.025618, "lon": -0.485897}}, {"text": "33505 LA SAUVE", "north_east": {"lat": 44.794703, "lon": -0.281141}, "code": "33505", "name": "LA SAUVE", "south_west": {"lat": 44.734178, "lon": -0.349722}}, {"text": "47159 LE MAS-D'AGENAIS", "north_east": {"lat": 44.431873, "lon": 0.241022}, "code": "47159", "name": "LE MAS-D'AGENAIS", "south_west": {"lat": 44.36551, "lon": 0.161457}}, {"text": "24289 MONTCARET", "north_east": {"lat": 44.894376, "lon": 0.099962}, "code": "24289", "name": "MONTCARET", "south_west": {"lat": 44.836298, "lon": 0.03736}}, {"text": "33463 SAINT-PIERRE-D'AURILLAC", "north_east": {"lat": 44.596686, "lon": -0.174716}, "code": "33463", "name": "SAINT-PIERRE-D'AURILLAC", "south_west": {"lat": 44.565928, "lon": -0.208913}}, {"text": "33357 ROAILLAN", "north_east": {"lat": 44.531884, "lon": -0.25022}, "code": "33357", "name": "ROAILLAN", "south_west": {"lat": 44.483271, "lon": -0.310347}}, {"text": "33142 CUBNEZAIS", "north_east": {"lat": 45.089947, "lon": -0.387877}, "code": "33142", "name": "CUBNEZAIS", "south_west": {"lat": 45.05737, "lon": -0.453733}}, {"text": "33091 CANTENAC", "north_east": {"lat": 45.048234, "lon": -0.635096}, "code": "33091", "name": "CANTENAC", "south_west": {"lat": 45.009563, "lon": -0.721976}}, {"text": "33261 LUSSAC", "north_east": {"lat": 45.001118, "lon": -0.04459}, "code": "33261", "name": "LUSSAC", "south_west": {"lat": 44.936111, "lon": -0.131476}}, {"text": "47165 MEILHAN-SUR-GARONNE", "north_east": {"lat": 44.553765, "lon": 0.077235}, "code": "47165", "name": "MEILHAN-SUR-GARONNE", "south_west": {"lat": 44.474644, "lon": -0.007206}}, {"text": "33362 SABLONS", "north_east": {"lat": 45.03953, "lon": -0.144665}, "code": "33362", "name": "SABLONS", "south_west": {"lat": 45.006166, "lon": -0.2168}}, {"text": "33202 HOSTENS", "north_east": {"lat": 44.51885, "lon": -0.581031}, "code": "33202", "name": "HOSTENS", "south_west": {"lat": 44.445728, "lon": -0.737539}}, {"text": "17243 MONTLIEU-LA-GARDE", "north_east": {"lat": 45.264671, "lon": -0.212612}, "code": "17243", "name": "MONTLIEU-LA-GARDE", "south_west": {"lat": 45.192788, "lon": -0.33844}}, {"text": "33205 ILLATS", "north_east": {"lat": 44.641948, "lon": -0.335344}, "code": "33205", "name": "ILLATS", "south_west": {"lat": 44.574744, "lon": -0.425878}}, {"text": "47086 DURAS", "north_east": {"lat": 44.703832, "lon": 0.24312}, "code": "47086", "name": "DURAS", "south_west": {"lat": 44.647507, "lon": 0.159558}}, {"text": "33471 SAINT-SAUVEUR", "north_east": {"lat": 45.221656, "lon": -0.784563}, "code": "33471", "name": "SAINT-SAUVEUR", "south_west": {"lat": 45.170401, "lon": -0.861159}}, {"text": "33071 BRANNE", "north_east": {"lat": 44.839466, "lon": -0.167803}, "code": "33071", "name": "BRANNE", "south_west": {"lat": 44.820102, "lon": -0.194748}}, {"text": "33525 TAURIAC", "north_east": {"lat": 45.074263, "lon": -0.474562}, "code": "33525", "name": "TAURIAC", "south_west": {"lat": 45.029638, "lon": -0.53668}}, {"text": "33084 CAMBES", "north_east": {"lat": 44.755545, "lon": -0.444637}, "code": "33084", "name": "CAMBES", "south_west": {"lat": 44.725894, "lon": -0.484779}}, {"text": "24329 LE PIZOU", "north_east": {"lat": 45.070921, "lon": 0.106522}, "code": "24329", "name": "LE PIZOU", "south_west": {"lat": 45.011618, "lon": 0.038201}}, {"text": "47101 FOURQUES-SUR-GARONNE", "north_east": {"lat": 44.477272, "lon": 0.185307}, "code": "47101", "name": "FOURQUES-SUR-GARONNE", "south_west": {"lat": 44.431847, "lon": 0.122698}}, {"text": "17077 CERCOUX", "north_east": {"lat": 45.161341, "lon": -0.152819}, "code": "17077", "name": "CERCOUX", "south_west": {"lat": 45.089303, "lon": -0.276326}}, {"text": "33183 GAURIAGUET", "north_east": {"lat": 45.060495, "lon": -0.377185}, "code": "33183", "name": "GAURIAGUET", "south_west": {"lat": 45.028294, "lon": -0.410523}}, {"text": "33350 RAUZAN", "north_east": {"lat": 44.805592, "lon": -0.107727}, "code": "33350", "name": "RAUZAN", "south_west": {"lat": 44.761314, "lon": -0.15754}}, {"text": "33545 VERTHEUIL", "north_east": {"lat": 45.275841, "lon": -0.800912}, "code": "33545", "name": "VERTHEUIL", "south_west": {"lat": 45.233384, "lon": -0.89392}}, {"text": "33018 AUBIE-ET-ESPESSAS", "north_east": {"lat": 45.039419, "lon": -0.384978}, "code": "33018", "name": "AUBIE-ET-ESPESSAS", "south_west": {"lat": 45.005684, "lon": -0.424074}}, {"text": "33100 CARS", "north_east": {"lat": 45.144152, "lon": -0.584642}, "code": "33100", "name": "CARS", "south_west": {"lat": 45.110938, "lon": -0.643975}}, {"text": "33106 CASTETS-EN-DORTHE", "north_east": {"lat": 44.573001, "lon": -0.116921}, "code": "33106", "name": "CASTETS-EN-DORTHE", "south_west": {"lat": 44.536637, "lon": -0.180206}}, {"text": "33220 LAMARQUE", "north_east": {"lat": 45.110331, "lon": -0.68332}, "code": "33220", "name": "LAMARQUE", "south_west": {"lat": 45.081436, "lon": -0.750771}}, {"text": "24226 LAMOTHE-MONTRAVEL", "north_east": {"lat": 44.870078, "lon": 0.052983}, "code": "24226", "name": "LAMOTHE-MONTRAVEL", "south_west": {"lat": 44.822084, "lon": -0.035056}}, {"text": "33046 BERNOS-BEAULAC", "north_east": {"lat": 44.404773, "lon": -0.215778}, "code": "33046", "name": "BERNOS-BEAULAC", "south_west": {"lat": 44.324055, "lon": -0.303971}}, {"text": "33311 PAILLET", "north_east": {"lat": 44.697841, "lon": -0.346911}, "code": "33311", "name": "PAILLET", "south_west": {"lat": 44.675896, "lon": -0.375318}}, {"text": "33267 MARCILLAC", "north_east": {"lat": 45.296689, "lon": -0.431914}, "code": "33267", "name": "MARCILLAC", "south_west": {"lat": 45.251408, "lon": -0.562927}}, {"text": "24237 LEMBRAS", "north_east": {"lat": 44.910754, "lon": 0.560599}, "code": "24237", "name": "LEMBRAS", "south_west": {"lat": 44.875811, "lon": 0.496453}}, {"text": "33548 VILLEGOUGE", "north_east": {"lat": 44.997118, "lon": -0.280358}, "code": "33548", "name": "VILLEGOUGE", "south_west": {"lat": 44.951564, "lon": -0.350206}}, {"text": "47264 SAINT-PARDOUX-ISAAC", "north_east": {"lat": 44.629548, "lon": 0.404988}, "code": "47264", "name": "SAINT-PARDOUX-ISAAC", "south_west": {"lat": 44.598027, "lon": 0.350788}}, {"text": "33082 CADILLAC-EN-FRONSADAIS", "north_east": {"lat": 44.97263, "lon": -0.357159}, "code": "33082", "name": "CADILLAC-EN-FRONSADAIS", "south_west": {"lat": 44.950209, "lon": -0.388836}}, {"text": "33412 SAINT-GERMAIN-D'ESTEUIL", "north_east": {"lat": 45.301075, "lon": -0.823575}, "code": "33412", "name": "SAINT-GERMAIN-D'ESTEUIL", "south_west": {"lat": 45.2038, "lon": -0.95311}}, {"text": "33465 SAINT-PIERRE-DE-MONS", "north_east": {"lat": 44.566183, "lon": -0.195859}, "code": "33465", "name": "SAINT-PIERRE-DE-MONS", "south_west": {"lat": 44.519549, "lon": -0.238094}}, {"text": "33264 MARANSIN", "north_east": {"lat": 45.109052, "lon": -0.212862}, "code": "33264", "name": "MARANSIN", "south_west": {"lat": 45.038606, "lon": -0.309483}}, {"text": "33174 FRONSAC", "north_east": {"lat": 44.953941, "lon": -0.241012}, "code": "33174", "name": "FRONSAC", "south_west": {"lat": 44.888911, "lon": -0.313891}}, {"text": "33101 CARTELEGUE", "north_east": {"lat": 45.213694, "lon": -0.541616}, "code": "33101", "name": "CARTELEGUE", "south_west": {"lat": 45.162294, "lon": -0.603604}}, {"text": "33014 LES ARTIGUES-DE-LUSSAC", "north_east": {"lat": 44.994674, "lon": -0.115066}, "code": "33014", "name": "LES ARTIGUES-DE-LUSSAC", "south_west": {"lat": 44.953096, "lon": -0.174104}}, {"text": "33052 LES BILLAUX", "north_east": {"lat": 44.976302, "lon": -0.220274}, "code": "33052", "name": "LES BILLAUX", "south_west": {"lat": 44.947181, "lon": -0.262957}}, {"text": "33259 LUGON-ET-L'ILE-DU-CARNAY", "north_east": {"lat": 44.974715, "lon": -0.325183}, "code": "33259", "name": "LUGON-ET-L'ILE-DU-CARNAY", "south_west": {"lat": 44.934058, "lon": -0.392593}}, {"text": "33253 LOUPIAC", "north_east": {"lat": 44.649625, "lon": -0.255607}, "code": "33253", "name": "LOUPIAC", "south_west": {"lat": 44.601925, "lon": -0.314252}}, {"text": "24436 SAINT-LAURENT-DES-HOMMES", "north_east": {"lat": 45.069869, "lon": 0.306424}, "code": "24436", "name": "SAINT-LAURENT-DES-HOMMES", "south_west": {"lat": 45.014993, "lon": 0.195467}}, {"text": "33296 MOULIETS-ET-VILLEMARTIN", "north_east": {"lat": 44.853274, "lon": 0.010768}, "code": "33296", "name": "MOULIETS-ET-VILLEMARTIN", "south_west": {"lat": 44.808796, "lon": -0.053877}}, {"text": "33487 SAINT-VINCENT-DE-PAUL", "north_east": {"lat": 45.005488, "lon": -0.453917}, "code": "33487", "name": "SAINT-VINCENT-DE-PAUL", "south_west": {"lat": 44.935129, "lon": -0.509307}}, {"text": "24543 SOURZAC", "north_east": {"lat": 45.076793, "lon": 0.466003}, "code": "24543", "name": "SOURZAC", "south_west": {"lat": 45.02355, "lon": 0.364197}}, {"text": "33195 GRIGNOLS", "north_east": {"lat": 44.449449, "lon": 0.008874}, "code": "33195", "name": "GRIGNOLS", "south_west": {"lat": 44.365851, "lon": -0.065668}}, {"text": "33028 BARON", "north_east": {"lat": 44.84344, "lon": -0.292788}, "code": "33028", "name": "BARON", "south_west": {"lat": 44.798738, "lon": -0.341188}}, {"text": "33187 GIRONDE-SUR-DROPT", "north_east": {"lat": 44.607326, "lon": -0.063606}, "code": "33187", "name": "GIRONDE-SUR-DROPT", "south_west": {"lat": 44.572106, "lon": -0.116667}}, {"text": "24409 SAINT-FRONT-DE-PRADOUX", "north_east": {"lat": 45.083151, "lon": 0.382451}, "code": "24409", "name": "SAINT-FRONT-DE-PRADOUX", "south_west": {"lat": 45.036368, "lon": 0.338949}}, {"text": "24568 VELINES", "north_east": {"lat": 44.878222, "lon": 0.140497}, "code": "24568", "name": "VELINES", "south_west": {"lat": 44.834984, "lon": 0.086568}}, {"text": "33221 LAMOTHE-LANDERRON", "north_east": {"lat": 44.58399, "lon": 0.087042}, "code": "33221", "name": "LAMOTHE-LANDERRON", "south_west": {"lat": 44.547339, "lon": 0.03381}}, {"text": "33111 CAUDROT", "north_east": {"lat": 44.604841, "lon": -0.129686}, "code": "33111", "name": "CAUDROT", "south_west": {"lat": 44.564404, "lon": -0.162617}}, {"text": "33518 TABANAC", "north_east": {"lat": 44.744392, "lon": -0.38661}, "code": "33518", "name": "TABANAC", "south_west": {"lat": 44.702543, "lon": -0.440314}}, {"text": "33272 MARSAS", "north_east": {"lat": 45.081676, "lon": -0.351973}, "code": "33272", "name": "MARSAS", "south_west": {"lat": 45.042696, "lon": -0.401774}}, {"text": "33007 ARBANATS", "north_east": {"lat": 44.688307, "lon": -0.371668}, "code": "33007", "name": "ARBANATS", "south_west": {"lat": 44.647748, "lon": -0.433738}}, {"text": "33040 BEGUEY", "north_east": {"lat": 44.662229, "lon": -0.31111}, "code": "33040", "name": "BEGUEY", "south_west": {"lat": 44.63641, "lon": -0.340255}}, {"text": "33317 PERISSAC", "north_east": {"lat": 45.050695, "lon": -0.287903}, "code": "33317", "name": "PERISSAC", "south_west": {"lat": 45.00092, "lon": -0.338512}}, {"text": "33436 SAINT-MAGNE", "north_east": {"lat": 44.611396, "lon": -0.598904}, "code": "33436", "name": "SAINT-MAGNE", "south_west": {"lat": 44.505411, "lon": -0.726032}}, {"text": "47306 LE TEMPLE-SUR-LOT", "north_east": {"lat": 44.398204, "lon": 0.563604}, "code": "47306", "name": "LE TEMPLE-SUR-LOT", "south_west": {"lat": 44.35136, "lon": 0.474405}}, {"text": "33416 SAINT-GIRONS-D'AIGUEVIVES", "north_east": {"lat": 45.171242, "lon": -0.51041}, "code": "33416", "name": "SAINT-GIRONS-D'AIGUEVIVES", "south_west": {"lat": 45.121795, "lon": -0.563675}}, {"text": "17104 CHEVANCEAUX", "north_east": {"lat": 45.323936, "lon": -0.146688}, "code": "17104", "name": "CHEVANCEAUX", "south_west": {"lat": 45.279893, "lon": -0.259392}}, {"text": "24584 VILLEFRANCHE-DE-LONCHAT", "north_east": {"lat": 44.983812, "lon": 0.083479}, "code": "24584", "name": "VILLEFRANCHE-DE-LONCHAT", "south_west": {"lat": 44.929824, "lon": 0.028937}}, {"text": "24449 SAINT-MARTIAL-D'ARTENSET", "north_east": {"lat": 45.033346, "lon": 0.259552}, "code": "24449", "name": "SAINT-MARTIAL-D'ARTENSET", "south_west": {"lat": 44.965944, "lon": 0.178304}}, {"text": "33458 SAINT-PAUL", "north_east": {"lat": 45.166306, "lon": -0.556268}, "code": "33458", "name": "SAINT-PAUL", "south_west": {"lat": 45.132909, "lon": -0.628881}}, {"text": "47301 SEYCHES", "north_east": {"lat": 44.576612, "lon": 0.347155}, "code": "47301", "name": "SEYCHES", "south_west": {"lat": 44.518105, "lon": 0.244259}}, {"text": "33441 SAINT-MARTIN-LACAUSSADE", "north_east": {"lat": 45.152441, "lon": -0.622509}, "code": "33441", "name": "SAINT-MARTIN-LACAUSSADE", "south_west": {"lat": 45.126568, "lon": -0.658424}}, {"text": "33547 VILLANDRAUT", "north_east": {"lat": 44.468832, "lon": -0.349812}, "code": "33547", "name": "VILLANDRAUT", "south_west": {"lat": 44.431556, "lon": -0.411909}}, {"text": "24259 MAURENS", "north_east": {"lat": 44.960774, "lon": 0.515439}, "code": "24259", "name": "MAURENS", "south_west": {"lat": 44.898766, "lon": 0.446213}}, {"text": "33298 MOULON", "north_east": {"lat": 44.893359, "lon": -0.193821}, "code": "33298", "name": "MOULON", "south_west": {"lat": 44.828023, "lon": -0.250405}}, {"text": "33336 PRECHAC", "north_east": {"lat": 44.438824, "lon": -0.304877}, "code": "33336", "name": "PRECHAC", "south_west": {"lat": 44.331436, "lon": -0.440654}}, {"text": "33553 VIRSAC", "north_east": {"lat": 45.034843, "lon": -0.419312}, "code": "33553", "name": "VIRSAC", "south_west": {"lat": 45.014676, "lon": -0.453378}}, {"text": "40307 SORE", "north_east": {"lat": 44.393598, "lon": -0.510684}, "code": "40307", "name": "SORE", "south_west": {"lat": 44.221282, "lon": -0.695215}}, {"text": "33316 PELLEGRUE", "north_east": {"lat": 44.782732, "lon": 0.150412}, "code": "33316", "name": "PELLEGRUE", "south_west": {"lat": 44.698837, "lon": 0.023813}}, {"text": "17074 BUSSAC-FORET", "north_east": {"lat": 45.243005, "lon": -0.330299}, "code": "17074", "name": "BUSSAC-FORET", "south_west": {"lat": 45.142375, "lon": -0.421015}}, {"text": "47068 COCUMONT", "north_east": {"lat": 44.483582, "lon": 0.074287}, "code": "47068", "name": "COCUMONT", "south_west": {"lat": 44.416389, "lon": -0.010114}}, {"text": "33392 SAINTE-CROIX-DU-MONT", "north_east": {"lat": 44.612396, "lon": -0.241929}, "code": "33392", "name": "SAINTE-CROIX-DU-MONT", "south_west": {"lat": 44.58354, "lon": -0.301829}}, {"text": "40295 SAUGNACQ-ET-MURET", "north_east": {"lat": 44.448979, "lon": -0.750194}, "code": "40295", "name": "SAUGNACQ-ET-MURET", "south_west": {"lat": 44.332613, "lon": -0.94924}}, {"text": "33182 GAURIAC", "north_east": {"lat": 45.079138, "lon": -0.595117}, "code": "33182", "name": "GAURIAC", "south_west": {"lat": 45.043486, "lon": -0.659915}}, {"text": "24586 VILLETOUREIX", "north_east": {"lat": 45.292274, "lon": 0.393272}, "code": "24586", "name": "VILLETOUREIX", "south_west": {"lat": 45.254911, "lon": 0.324637}}, {"text": "33023 AYGUEMORTE-LES-GRAVES", "north_east": {"lat": 44.720418, "lon": -0.461355}, "code": "33023", "name": "AYGUEMORTE-LES-GRAVES", "south_west": {"lat": 44.68546, "lon": -0.510721}}, {"text": "33332 PORCHERES", "north_east": {"lat": 45.056877, "lon": 0.032857}, "code": "33332", "name": "PORCHERES", "south_west": {"lat": 45.016032, "lon": -0.032245}}, {"text": "33552 VIRELADE", "north_east": {"lat": 44.683964, "lon": -0.36516}, "code": "33552", "name": "VIRELADE", "south_west": {"lat": 44.628518, "lon": -0.431156}}, {"text": "17110 CLERAC", "north_east": {"lat": 45.207582, "lon": -0.166557}, "code": "17110", "name": "CLERAC", "south_west": {"lat": 45.138497, "lon": -0.310747}}, {"text": "33130 COIMERES", "north_east": {"lat": 44.523907, "lon": -0.186662}, "code": "33130", "name": "COIMERES", "south_west": {"lat": 44.478134, "lon": -0.238865}}, {"text": "33186 GENSAC", "north_east": {"lat": 44.812819, "lon": 0.114461}, "code": "33186", "name": "GENSAC", "south_west": {"lat": 44.778839, "lon": 0.060774}}, {"text": "33057 BLASIMON", "north_east": {"lat": 44.780828, "lon": -0.039498}, "code": "33057", "name": "BLASIMON", "south_west": {"lat": 44.723637, "lon": -0.140598}}, {"text": "33021 AUROS", "north_east": {"lat": 44.539666, "lon": -0.11748}, "code": "33021", "name": "AUROS", "south_west": {"lat": 44.484189, "lon": -0.200707}}, {"text": "47285 SAMAZAN", "north_east": {"lat": 44.462915, "lon": 0.139114}, "code": "47285", "name": "SAMAZAN", "south_west": {"lat": 44.412698, "lon": 0.073222}}, {"text": "24418 SAINT-GERMAIN-DU-SALEMBRE", "north_east": {"lat": 45.155719, "lon": 0.476937}, "code": "24418", "name": "SAINT-GERMAIN-DU-SALEMBRE", "south_west": {"lat": 45.099527, "lon": 0.390719}}, {"text": "33006 ANGLADE", "north_east": {"lat": 45.23421, "lon": -0.605412}, "code": "33006", "name": "ANGLADE", "south_west": {"lat": 45.19088, "lon": -0.679821}}, {"text": "33325 PLASSAC", "north_east": {"lat": 45.115454, "lon": -0.603987}, "code": "33325", "name": "PLASSAC", "south_west": {"lat": 45.070453, "lon": -0.687091}}, {"text": "24274 MONBAZILLAC", "north_east": {"lat": 44.818929, "lon": 0.518255}, "code": "24274", "name": "MONBAZILLAC", "south_west": {"lat": 44.769027, "lon": 0.441077}}, {"text": "33543 VERDELAIS", "north_east": {"lat": 44.605603, "lon": -0.22318}, "code": "33543", "name": "VERDELAIS", "south_west": {"lat": 44.577295, "lon": -0.284592}}, {"text": "24236 LEGUILLAC-DE-L'AUCHE", "north_east": {"lat": 45.208835, "lon": 0.591968}, "code": "24236", "name": "LEGUILLAC-DE-L'AUCHE", "south_west": {"lat": 45.167255, "lon": 0.51425}}, {"text": "24297 MOULIN-NEUF", "north_east": {"lat": 45.025428, "lon": 0.083803}, "code": "24297", "name": "MOULIN-NEUF", "south_west": {"lat": 44.978363, "lon": 0.035119}}, {"text": "33342 PUISSEGUIN", "north_east": {"lat": 44.95509, "lon": -0.028374}, "code": "33342", "name": "PUISSEGUIN", "south_west": {"lat": 44.905723, "lon": -0.098905}}, {"text": "33303 NERIGEAN", "north_east": {"lat": 44.865589, "lon": -0.246787}, "code": "33303", "name": "NERIGEAN", "south_west": {"lat": 44.827386, "lon": -0.314281}}, {"text": "47095 FAUILLET", "north_east": {"lat": 44.443256, "lon": 0.328074}, "code": "47095", "name": "FAUILLET", "south_west": {"lat": 44.401171, "lon": 0.258439}}, {"text": "33083 CAMARSAC", "north_east": {"lat": 44.839844, "lon": -0.351683}, "code": "33083", "name": "CAMARSAC", "south_west": {"lat": 44.810392, "lon": -0.387502}}, {"text": "33126 CIVRAC-DE-BLAYE", "north_east": {"lat": 45.135494, "lon": -0.428359}, "code": "33126", "name": "CIVRAC-DE-BLAYE", "south_west": {"lat": 45.090336, "lon": -0.485878}}, {"text": "47028 BIRAC-SUR-TREC", "north_east": {"lat": 44.504513, "lon": 0.302248}, "code": "47028", "name": "BIRAC-SUR-TREC", "south_west": {"lat": 44.467972, "lon": 0.22171}}, {"text": "47056 CASTELNAU-SUR-GUPIE", "north_east": {"lat": 44.608916, "lon": 0.164556}, "code": "47056", "name": "CASTELNAU-SUR-GUPIE", "south_west": {"lat": 44.542738, "lon": 0.116464}}, {"text": "33470 SAINT-ROMAIN-LA-VIRVEE", "north_east": {"lat": 44.976232, "lon": -0.379494}, "code": "33470", "name": "SAINT-ROMAIN-LA-VIRVEE", "south_west": {"lat": 44.941883, "lon": -0.456211}}, {"text": "33170 FONTET", "north_east": {"lat": 44.577433, "lon": -0.0098}, "code": "33170", "name": "FONTET", "south_west": {"lat": 44.527351, "lon": -0.043037}}, {"text": "47156 MARCELLUS", "north_east": {"lat": 44.506038, "lon": 0.106793}, "code": "47156", "name": "MARCELLUS", "south_west": {"lat": 44.455669, "lon": 0.051287}}, {"text": "33494 SALAUNES", "north_east": {"lat": 44.972772, "lon": -0.79078}, "code": "33494", "name": "SALAUNES", "south_west": {"lat": 44.883746, "lon": -0.910418}}, {"text": "33151 DONNEZAC", "north_east": {"lat": 45.281337, "lon": -0.403393}, "code": "33151", "name": "DONNEZAC", "south_west": {"lat": 45.197732, "lon": -0.489425}}, {"text": "33061 BONNETAN", "north_east": {"lat": 44.833469, "lon": -0.392355}, "code": "33061", "name": "BONNETAN", "south_west": {"lat": 44.808486, "lon": -0.426405}}, {"text": "33002 AILLAS", "north_east": {"lat": 44.52243, "lon": -0.012516}, "code": "33002", "name": "AILLAS", "south_west": {"lat": 44.444765, "lon": -0.119395}}, {"text": "33542 VERAC", "north_east": {"lat": 45.008327, "lon": -0.307088}, "code": "33542", "name": "VERAC", "south_west": {"lat": 44.977518, "lon": -0.364845}}, {"text": "47127 LAFITTE-SUR-LOT", "north_east": {"lat": 44.383258, "lon": 0.463279}, "code": "47127", "name": "LAFITTE-SUR-LOT", "south_west": {"lat": 44.332787, "lon": 0.399032}}, {"text": "33201 HAUX", "north_east": {"lat": 44.758593, "lon": -0.342316}, "code": "33201", "name": "HAUX", "south_west": {"lat": 44.718461, "lon": -0.393608}}, {"text": "33534 LE TOURNE", "north_east": {"lat": 44.730362, "lon": -0.382593}, "code": "33534", "name": "LE TOURNE", "south_west": {"lat": 44.70573, "lon": -0.414062}}, {"text": "33374 SAINT-AUBIN-DE-BLAYE", "north_east": {"lat": 45.281557, "lon": -0.549011}, "code": "33374", "name": "SAINT-AUBIN-DE-BLAYE", "south_west": {"lat": 45.235596, "lon": -0.602317}}, {"text": "24197 GINESTET", "north_east": {"lat": 44.928592, "lon": 0.488038}, "code": "24197", "name": "GINESTET", "south_west": {"lat": 44.883907, "lon": 0.402504}}, {"text": "24437 SAINT-LAURENT-DES-VIGNES", "north_east": {"lat": 44.844564, "lon": 0.475779}, "code": "24437", "name": "SAINT-LAURENT-DES-VIGNES", "south_west": {"lat": 44.807741, "lon": 0.41667}}, {"text": "24331 POMPORT", "north_east": {"lat": 44.820273, "lon": 0.454112}, "code": "24331", "name": "POMPORT", "south_west": {"lat": 44.768384, "lon": 0.368785}}, {"text": "24461 SAINT-MEARD-DE-GURCON", "north_east": {"lat": 44.939133, "lon": 0.224622}, "code": "24461", "name": "SAINT-MEARD-DE-GURCON", "south_west": {"lat": 44.877938, "lon": 0.126421}}, {"text": "33062 BONZAC", "north_east": {"lat": 45.03187, "lon": -0.204211}, "code": "33062", "name": "BONZAC", "south_west": {"lat": 44.986119, "lon": -0.245423}}, {"text": "24534 SIGOULES", "north_east": {"lat": 44.777111, "lon": 0.427724}, "code": "24534", "name": "SIGOULES", "south_west": {"lat": 44.736256, "lon": 0.367149}}, {"text": "33144 CUDOS", "north_east": {"lat": 44.412208, "lon": -0.129204}, "code": "33144", "name": "CUDOS", "south_west": {"lat": 44.345899, "lon": -0.237645}}, {"text": "33300 NAUJAC-SUR-MER", "north_east": {"lat": 45.306799, "lon": -0.959514}, "code": "33300", "name": "NAUJAC-SUR-MER", "south_west": {"lat": 45.208125, "lon": -1.17319}}, {"text": "24157 DOUZILLAC", "north_east": {"lat": 45.12121, "lon": 0.438389}, "code": "24157", "name": "DOUZILLAC", "south_west": {"lat": 45.066729, "lon": 0.381292}}, {"text": "33388 SAINT-CIERS-DE-CANESSE", "north_east": {"lat": 45.104412, "lon": -0.580986}, "code": "33388", "name": "SAINT-CIERS-DE-CANESSE", "south_west": {"lat": 45.071453, "lon": -0.625912}}, {"text": "33445 SAINT-MARTIN-DU-BOIS", "north_east": {"lat": 45.046262, "lon": -0.235823}, "code": "33445", "name": "SAINT-MARTIN-DU-BOIS", "south_west": {"lat": 44.999152, "lon": -0.285991}}, {"text": "33530 TEUILLAC", "north_east": {"lat": 45.117863, "lon": -0.527987}, "code": "33530", "name": "TEUILLAC", "south_west": {"lat": 45.083216, "lon": -0.573802}}, {"text": "47173 MONCLAR", "north_east": {"lat": 44.471813, "lon": 0.561159}, "code": "47173", "name": "MONCLAR", "south_west": {"lat": 44.417167, "lon": 0.483431}}, {"text": "33260 LUGOS", "north_east": {"lat": 44.529155, "lon": -0.815519}, "code": "33260", "name": "LUGOS", "south_west": {"lat": 44.4227, "lon": -1.036214}}, {"text": "33343 PUJOLS-SUR-CIRON", "north_east": {"lat": 44.590824, "lon": -0.323182}, "code": "33343", "name": "PUJOLS-SUR-CIRON", "south_west": {"lat": 44.547295, "lon": -0.374497}}, {"text": "33194 GREZILLAC", "north_east": {"lat": 44.835171, "lon": -0.185701}, "code": "33194", "name": "GREZILLAC", "south_west": {"lat": 44.794387, "lon": -0.244005}}, {"text": "33266 MARCENAIS", "north_east": {"lat": 45.083274, "lon": -0.319347}, "code": "33266", "name": "MARCENAIS", "south_west": {"lat": 45.043091, "lon": -0.366577}}, {"text": "33076 BUDOS", "north_east": {"lat": 44.557784, "lon": -0.358917}, "code": "33076", "name": "BUDOS", "south_west": {"lat": 44.514641, "lon": -0.452792}}, {"text": "47142 LAUZUN", "north_east": {"lat": 44.670567, "lon": 0.516379}, "code": "47142", "name": "LAUZUN", "south_west": {"lat": 44.616575, "lon": 0.416134}}, {"text": "24564 VANXAINS", "north_east": {"lat": 45.270291, "lon": 0.328067}, "code": "24564", "name": "VANXAINS", "south_west": {"lat": 45.170739, "lon": 0.247453}}, {"text": "17113 LA CLOTTE", "north_east": {"lat": 45.144853, "lon": -0.109643}, "code": "17113", "name": "LA CLOTTE", "south_west": {"lat": 45.088818, "lon": -0.171545}}, {"text": "33228 LANSAC", "north_east": {"lat": 45.080554, "lon": -0.512664}, "code": "33228", "name": "LANSAC", "south_west": {"lat": 45.049044, "lon": -0.56046}}, {"text": "33251 LOUCHATS", "north_east": {"lat": 44.555264, "lon": -0.521944}, "code": "33251", "name": "LOUCHATS", "south_west": {"lat": 44.467568, "lon": -0.614178}}, {"text": "33423 SAINT-JULIEN-BEYCHEVELLE", "north_east": {"lat": 45.185113, "lon": -0.692833}, "code": "33423", "name": "SAINT-JULIEN-BEYCHEVELLE", "south_west": {"lat": 45.135614, "lon": -0.786205}}, {"text": "47191 MONTPOUILLAN", "north_east": {"lat": 44.484621, "lon": 0.129731}, "code": "47191", "name": "MONTPOUILLAN", "south_west": {"lat": 44.432935, "lon": 0.064497}}, {"text": "47131 LAGUPIE", "north_east": {"lat": 44.594529, "lon": 0.131555}, "code": "47131", "name": "LAGUPIE", "south_west": {"lat": 44.547026, "lon": 0.08855}}, {"text": "33320 PETIT-PALAIS-ET-CORNEMPS", "north_east": {"lat": 45.0044, "lon": -0.015841}, "code": "33320", "name": "PETIT-PALAIS-ET-CORNEMPS", "south_west": {"lat": 44.959038, "lon": -0.089944}}, {"text": "33175 FRONTENAC", "north_east": {"lat": 44.748051, "lon": -0.104055}, "code": "33175", "name": "FRONTENAC", "south_west": {"lat": 44.710139, "lon": -0.177522}}, {"text": "33222 LALANDE-DE-POMEROL", "north_east": {"lat": 44.969209, "lon": -0.174357}, "code": "33222", "name": "LALANDE-DE-POMEROL", "south_west": {"lat": 44.940568, "lon": -0.232624}}, {"text": "40200 MOUSTEY", "north_east": {"lat": 44.448476, "lon": -0.691866}, "code": "40200", "name": "MOUSTEY", "south_west": {"lat": 44.331829, "lon": -0.854291}}, {"text": "33476 SAINT-SEURIN-DE-CADOURNE", "north_east": {"lat": 45.310125, "lon": -0.76671}, "code": "33476", "name": "SAINT-SEURIN-DE-CADOURNE", "south_west": {"lat": 45.274294, "lon": -0.836685}}, {"text": "33252 LOUPES", "north_east": {"lat": 44.825975, "lon": -0.368147}, "code": "33252", "name": "LOUPES", "south_west": {"lat": 44.797843, "lon": -0.416943}}, {"text": "47094 FAUGUEROLLES", "north_east": {"lat": 44.462563, "lon": 0.266186}, "code": "47094", "name": "FAUGUEROLLES", "south_west": {"lat": 44.429725, "lon": 0.218237}}, {"text": "33407 SAINT-GENES-DE-FRONSAC", "north_east": {"lat": 45.046418, "lon": -0.33153}, "code": "33407", "name": "SAINT-GENES-DE-FRONSAC", "south_west": {"lat": 45.005013, "lon": -0.363154}}, {"text": "17099 CHEPNIERS", "north_east": {"lat": 45.285437, "lon": -0.269471}, "code": "17099", "name": "CHEPNIERS", "south_west": {"lat": 45.212373, "lon": -0.378725}}, {"text": "17167 LE FOUILLOUX", "north_east": {"lat": 45.250532, "lon": -0.089673}, "code": "17167", "name": "LE FOUILLOUX", "south_west": {"lat": 45.164267, "lon": -0.164095}}, {"text": "33323 LE PIAN-SUR-GARONNE", "north_east": {"lat": 44.600654, "lon": -0.199168}, "code": "33323", "name": "LE PIAN-SUR-GARONNE", "south_west": {"lat": 44.562849, "lon": -0.233327}}, {"text": "33245 LIGNAN-DE-BORDEAUX", "north_east": {"lat": 44.813202, "lon": -0.40247}, "code": "33245", "name": "LIGNAN-DE-BORDEAUX", "south_west": {"lat": 44.770713, "lon": -0.456061}}, {"text": "33035 BAYON-SUR-GIRONDE", "north_east": {"lat": 45.065203, "lon": -0.577951}, "code": "33035", "name": "BAYON-SUR-GIRONDE", "south_west": {"lat": 45.018532, "lon": -0.639616}}, {"text": "33504 SAUTERNES", "north_east": {"lat": 44.554631, "lon": -0.313563}, "code": "33504", "name": "SAUTERNES", "south_west": {"lat": 44.511033, "lon": -0.376067}}, {"text": "33237 LEOGEATS", "north_east": {"lat": 44.526472, "lon": -0.302024}, "code": "33237", "name": "LEOGEATS", "south_west": {"lat": 44.482532, "lon": -0.427481}}, {"text": "33385 SAINT-CHRISTOPHE-DE-DOUBLE", "north_east": {"lat": 45.119412, "lon": 0.071944}, "code": "33385", "name": "SAINT-CHRISTOPHE-DE-DOUBLE", "south_west": {"lat": 45.048536, "lon": -0.025058}}, {"text": "33369 SAINT-ANDRE-ET-APPELLES", "north_east": {"lat": 44.824543, "lon": 0.227857}, "code": "33369", "name": "SAINT-ANDRE-ET-APPELLES", "south_west": {"lat": 44.789934, "lon": 0.163039}}, {"text": "33328 POMEROL", "north_east": {"lat": 44.947612, "lon": -0.173374}, "code": "33328", "name": "POMEROL", "south_west": {"lat": 44.914396, "lon": -0.226185}}, {"text": "24455 SAINT-MARTIN-DE-RIBERAC", "north_east": {"lat": 45.240355, "lon": 0.399341}, "code": "24455", "name": "SAINT-MARTIN-DE-RIBERAC", "south_west": {"lat": 45.197484, "lon": 0.316444}}, {"text": "33279 MAZERES", "north_east": {"lat": 44.53251, "lon": -0.228173}, "code": "33279", "name": "MAZERES", "south_west": {"lat": 44.470922, "lon": -0.276573}}, {"text": "33124 CHAMADELLE", "north_east": {"lat": 45.122418, "lon": -0.054706}, "code": "33124", "name": "CHAMADELLE", "south_west": {"lat": 45.074793, "lon": -0.121339}}, {"text": "33033 BAURECH", "north_east": {"lat": 44.743976, "lon": -0.400332}, "code": "33033", "name": "BAURECH", "south_west": {"lat": 44.704875, "lon": -0.459004}}, {"text": "33157 ESPIET", "north_east": {"lat": 44.821014, "lon": -0.2497}, "code": "33157", "name": "ESPIET", "south_west": {"lat": 44.776431, "lon": -0.287028}}, {"text": "33477 SAINT-SEURIN-DE-CURSAC", "north_east": {"lat": 45.168944, "lon": -0.613574}, "code": "33477", "name": "SAINT-SEURIN-DE-CURSAC", "south_west": {"lat": 45.146711, "lon": -0.636787}}, {"text": "33161 EYRANS", "north_east": {"lat": 45.212066, "lon": -0.594635}, "code": "33161", "name": "EYRANS", "south_west": {"lat": 45.181672, "lon": -0.626842}}, {"text": "17052 BOISREDON", "north_east": {"lat": 45.352875, "lon": -0.511276}, "code": "17052", "name": "BOISREDON", "south_west": {"lat": 45.284523, "lon": -0.576451}}, {"text": "33211 LABARDE", "north_east": {"lat": 45.029287, "lon": -0.62039}, "code": "33211", "name": "LABARDE", "south_west": {"lat": 44.99914, "lon": -0.657957}}, {"text": "24090 CELLES", "north_east": {"lat": 45.326554, "lon": 0.451921}, "code": "24090", "name": "CELLES", "south_west": {"lat": 45.252913, "lon": 0.377068}}, {"text": "33503 SAUMOS", "north_east": {"lat": 44.953079, "lon": -0.930978}, "code": "33503", "name": "SAUMOS", "south_west": {"lat": 44.87152, "lon": -1.075919}}, {"text": "33370 SAINT-ANDRONY", "north_east": {"lat": 45.238388, "lon": -0.624013}, "code": "33370", "name": "SAINT-ANDRONY", "south_west": {"lat": 45.165888, "lon": -0.738354}}, {"text": "33160 EYNESSE", "north_east": {"lat": 44.830002, "lon": 0.185439}, "code": "33160", "name": "EYNESSE", "south_west": {"lat": 44.80661, "lon": 0.114375}}, {"text": "33508 SAVIGNAC", "north_east": {"lat": 44.538963, "lon": -0.072932}, "code": "33508", "name": "SAVIGNAC", "south_west": {"lat": 44.49009, "lon": -0.138218}}, {"text": "47190 MONTPEZAT", "north_east": {"lat": 44.374054, "lon": 0.575428}, "code": "47190", "name": "MONTPEZAT", "south_west": {"lat": 44.311955, "lon": 0.480284}}, {"text": "47216 PUYMICLAN", "north_east": {"lat": 44.543653, "lon": 0.358616}, "code": "47216", "name": "PUYMICLAN", "south_west": {"lat": 44.480235, "lon": 0.262409}}, {"text": "47099 FONGRAVE", "north_east": {"lat": 44.428995, "lon": 0.552289}, "code": "47099", "name": "FONGRAVE", "south_west": {"lat": 44.381378, "lon": 0.512785}}, {"text": "24007 ALLEMANS", "north_east": {"lat": 45.316291, "lon": 0.338269}, "code": "24007", "name": "ALLEMANS", "south_west": {"lat": 45.260312, "lon": 0.251395}}, {"text": "24490 SAINT-PRIVAT-DES-PRES", "north_east": {"lat": 45.240644, "lon": 0.234472}, "code": "24490", "name": "SAINT-PRIVAT-DES-PRES", "south_west": {"lat": 45.19227, "lon": 0.14426}}, {"text": "47034 BOUGLON", "north_east": {"lat": 44.424513, "lon": 0.138034}, "code": "47034", "name": "BOUGLON", "south_west": {"lat": 44.381275, "lon": 0.068026}}, {"text": "33460 SAINT-PEY-DE-CASTETS", "north_east": {"lat": 44.847049, "lon": -0.044598}, "code": "33460", "name": "SAINT-PEY-DE-CASTETS", "south_west": {"lat": 44.793994, "lon": -0.089815}}, {"text": "33287 MONGAUZY", "north_east": {"lat": 44.591191, "lon": 0.044056}, "code": "33287", "name": "MONGAUZY", "south_west": {"lat": 44.549785, "lon": 0.00035}}, {"text": "47316 VARES", "north_east": {"lat": 44.457874, "lon": 0.396151}, "code": "47316", "name": "VARES", "south_west": {"lat": 44.405343, "lon": 0.322899}}, {"text": "47290 LA SAUVETAT-DU-DROPT", "north_east": {"lat": 44.668334, "lon": 0.356918}, "code": "47290", "name": "LA SAUVETAT-DU-DROPT", "south_west": {"lat": 44.624115, "lon": 0.304353}}, {"text": "33361 RUCH", "north_east": {"lat": 44.793104, "lon": 0.000571}, "code": "33361", "name": "RUCH", "south_west": {"lat": 44.756401, "lon": -0.068554}}, {"text": "47226 ROUMAGNE", "north_east": {"lat": 44.640512, "lon": 0.374649}, "code": "47226", "name": "ROUMAGNE", "south_west": {"lat": 44.607235, "lon": 0.304935}}, {"text": "33344 PUJOLS", "north_east": {"lat": 44.820274, "lon": -0.009423}, "code": "33344", "name": "PUJOLS", "south_west": {"lat": 44.788665, "lon": -0.05104}}, {"text": "47144 LAVERGNE", "north_east": {"lat": 44.605463, "lon": 0.457962}, "code": "47144", "name": "LAVERGNE", "south_west": {"lat": 44.55852, "lon": 0.374985}}, {"text": "47263 SAINT-PARDOUX-DU-BREUIL", "north_east": {"lat": 44.485983, "lon": 0.224734}, "code": "47263", "name": "SAINT-PARDOUX-DU-BREUIL", "south_west": {"lat": 44.454432, "lon": 0.176468}}, {"text": "47061 CAUMONT-SUR-GARONNE", "north_east": {"lat": 44.446169, "lon": 0.211336}, "code": "47061", "name": "CAUMONT-SUR-GARONNE", "south_west": {"lat": 44.396654, "lon": 0.152692}}, {"text": "33184 GENERAC", "north_east": {"lat": 45.200673, "lon": -0.519831}, "code": "33184", "name": "GENERAC", "south_west": {"lat": 45.15276, "lon": -0.577517}}, {"text": "47111 GRANGES-SUR-LOT", "north_east": {"lat": 44.380146, "lon": 0.48467}, "code": "47111", "name": "GRANGES-SUR-LOT", "south_west": {"lat": 44.355186, "lon": 0.457669}}, {"text": "47088 ESCASSEFORT", "north_east": {"lat": 44.570215, "lon": 0.262799}, "code": "47088", "name": "ESCASSEFORT", "south_west": {"lat": 44.534341, "lon": 0.197841}}, {"text": "47147 LEVIGNAC-DE-GUYENNE", "north_east": {"lat": 44.655951, "lon": 0.24455}, "code": "47147", "name": "LEVIGNAC-DE-GUYENNE", "south_west": {"lat": 44.591261, "lon": 0.164151}}, {"text": "24454 SAINT-MARTIN-DE-GURSON", "north_east": {"lat": 44.991443, "lon": 0.157138}, "code": "24454", "name": "SAINT-MARTIN-DE-GURSON", "south_west": {"lat": 44.92982, "lon": 0.077803}}, {"text": "24205 GRIGNOLS", "north_east": {"lat": 45.117164, "lon": 0.56979}, "code": "24205", "name": "GRIGNOLS", "south_west": {"lat": 45.049719, "lon": 0.502489}}, {"text": "47317 VERTEUIL-D'AGENAIS", "north_east": {"lat": 44.499457, "lon": 0.435616}, "code": "47317", "name": "VERTEUIL-D'AGENAIS", "south_west": {"lat": 44.437888, "lon": 0.366404}}, {"text": "17038 BEDENAC", "north_east": {"lat": 45.223794, "lon": -0.254499}, "code": "17038", "name": "BEDENAC", "south_west": {"lat": 45.136238, "lon": -0.365807}}, {"text": "33241 LESTIAC-SUR-GARONNE", "north_east": {"lat": 44.700461, "lon": -0.358034}, "code": "33241", "name": "LESTIAC-SUR-GARONNE", "south_west": {"lat": 44.683929, "lon": -0.40571}}, {"text": "24509 SAINT-VINCENT-DE-CONNEZAC", "north_east": {"lat": 45.196457, "lon": 0.434378}, "code": "24509", "name": "SAINT-VINCENT-DE-CONNEZAC", "south_west": {"lat": 45.130647, "lon": 0.35438}}, {"text": "17269 ORIGNOLLES", "north_east": {"lat": 45.245596, "lon": -0.208711}, "code": "17269", "name": "ORIGNOLLES", "south_west": {"lat": 45.196409, "lon": -0.262781}}, {"text": "47046 CALONGES", "north_east": {"lat": 44.397726, "lon": 0.262383}, "code": "47046", "name": "CALONGES", "south_west": {"lat": 44.351522, "lon": 0.18706}}, {"text": "47170 MONBAHUS", "north_east": {"lat": 44.567059, "lon": 0.575169}, "code": "47170", "name": "MONBAHUS", "south_west": {"lat": 44.50188, "lon": 0.468678}}, {"text": "33093 CAPIAN", "north_east": {"lat": 44.745319, "lon": -0.29792}, "code": "33093", "name": "CAPIAN", "south_west": {"lat": 44.689563, "lon": -0.359613}}, {"text": "33254 LOUPIAC-DE-LA-REOLE", "north_east": {"lat": 44.565813, "lon": -0.032328}, "code": "33254", "name": "LOUPIAC-DE-LA-REOLE", "south_west": {"lat": 44.52076, "lon": -0.056034}}, {"text": "17365 SAINT-MARTIN-D'ARY", "north_east": {"lat": 45.240072, "lon": -0.184046}, "code": "17365", "name": "SAINT-MARTIN-D'ARY", "south_west": {"lat": 45.194451, "lon": -0.219465}}, {"text": "33457 SAINT-PARDON-DE-CONQUES", "north_east": {"lat": 44.568056, "lon": -0.172441}, "code": "33457", "name": "SAINT-PARDON-DE-CONQUES", "south_west": {"lat": 44.531954, "lon": -0.207284}}, {"text": "24371 SAINT-AQUILIN", "north_east": {"lat": 45.215306, "lon": 0.528427}, "code": "24371", "name": "SAINT-AQUILIN", "south_west": {"lat": 45.161024, "lon": 0.450223}}, {"text": "33532 TIZAC-DE-LAPOUYADE", "north_east": {"lat": 45.092601, "lon": -0.286565}, "code": "33532", "name": "TIZAC-DE-LAPOUYADE", "south_west": {"lat": 45.047197, "lon": -0.335826}}, {"text": "33319 PESSAC-SUR-DORDOGNE", "north_east": {"lat": 44.833284, "lon": 0.114803}, "code": "33319", "name": "PESSAC-SUR-DORDOGNE", "south_west": {"lat": 44.803212, "lon": 0.070263}}, {"text": "33166 LE FIEU", "north_east": {"lat": 45.076391, "lon": -0.004249}, "code": "33166", "name": "LE FIEU", "south_west": {"lat": 45.031171, "lon": -0.068961}}, {"text": "33204 HURE", "north_east": {"lat": 44.555272, "lon": 0.017557}, "code": "33204", "name": "HURE", "south_west": {"lat": 44.520968, "lon": -0.027926}}, {"text": "47325 VILLETON", "north_east": {"lat": 44.39039, "lon": 0.304433}, "code": "47325", "name": "VILLETON", "south_west": {"lat": 44.352969, "lon": 0.251936}}, {"text": "33373 SAINT-ANTOINE-SUR-L'ISLE", "north_east": {"lat": 45.076482, "lon": 0.07615}, "code": "33373", "name": "SAINT-ANTOINE-SUR-L'ISLE", "south_west": {"lat": 45.013975, "lon": 0.013877}}, {"text": "24286 MONTAGRIER", "north_east": {"lat": 45.292068, "lon": 0.522014}, "code": "24286", "name": "MONTAGRIER", "south_west": {"lat": 45.253422, "lon": 0.449488}}, {"text": "33462 SAINT-PHILIPPE-DU-SEIGNAL", "north_east": {"lat": 44.836699, "lon": 0.266006}, "code": "33462", "name": "SAINT-PHILIPPE-DU-SEIGNAL", "south_west": {"lat": 44.811243, "lon": 0.236411}}, {"text": "33546 VIGNONET", "north_east": {"lat": 44.860572, "lon": -0.13046}, "code": "33546", "name": "VIGNONET", "south_west": {"lat": 44.838774, "lon": -0.166796}}, {"text": "33509 SAVIGNAC-DE-L'ISLE", "north_east": {"lat": 45.002875, "lon": -0.222899}, "code": "33509", "name": "SAVIGNAC-DE-L'ISLE", "south_west": {"lat": 44.97041, "lon": -0.254921}}, {"text": "33335 LE POUT", "north_east": {"lat": 44.81878, "lon": -0.344399}, "code": "33335", "name": "LE POUT", "south_west": {"lat": 44.790039, "lon": -0.368402}}, {"text": "33089 CAMPUGNAN", "north_east": {"lat": 45.208796, "lon": -0.533834}, "code": "33089", "name": "CAMPUGNAN", "south_west": {"lat": 45.158394, "lon": -0.58696}}, {"text": "24189 FOUGUEYROLLES", "north_east": {"lat": 44.88846, "lon": 0.213595}, "code": "24189", "name": "FOUGUEYROLLES", "south_west": {"lat": 44.850635, "lon": 0.164198}}, {"text": "33145 CURSAN", "north_east": {"lat": 44.809618, "lon": -0.311531}, "code": "33145", "name": "CURSAN", "south_west": {"lat": 44.78396, "lon": -0.356775}}, {"text": "33147 DAIGNAC", "north_east": {"lat": 44.818078, "lon": -0.208723}, "code": "33147", "name": "DAIGNAC", "south_west": {"lat": 44.781719, "lon": -0.253876}}, {"text": "47163 MAUVEZIN-SUR-GUPIE", "north_east": {"lat": 44.58661, "lon": 0.204208}, "code": "47163", "name": "MAUVEZIN-SUR-GUPIE", "south_west": {"lat": 44.537738, "lon": 0.139925}}, {"text": "24380 SAINT-BARTHELEMY-DE-BELLEGARDE", "north_east": {"lat": 45.115347, "lon": 0.248686}, "code": "24380", "name": "SAINT-BARTHELEMY-DE-BELLEGARDE", "south_west": {"lat": 45.050979, "lon": 0.145664}}, {"text": "33468 SAINTE-RADEGONDE", "north_east": {"lat": 44.833122, "lon": 0.06271}, "code": "33468", "name": "SAINTE-RADEGONDE", "south_west": {"lat": 44.776042, "lon": -0.006144}}, {"text": "33141 CROIGNON", "north_east": {"lat": 44.835474, "lon": -0.328793}, "code": "33141", "name": "CROIGNON", "south_west": {"lat": 44.803811, "lon": -0.361927}}, {"text": "33016 ASQUES", "north_east": {"lat": 44.961439, "lon": -0.397204}, "code": "33016", "name": "ASQUES", "south_west": {"lat": 44.934714, "lon": -0.452153}}, {"text": "24029 BEAUPOUYET", "north_east": {"lat": 45.032196, "lon": 0.314167}, "code": "24029", "name": "BEAUPOUYET", "south_west": {"lat": 44.958977, "lon": 0.255427}}, {"text": "33444 SAINT-MARTIN-DE-SESCAS", "north_east": {"lat": 44.606114, "lon": -0.144697}, "code": "33444", "name": "SAINT-MARTIN-DE-SESCAS", "south_west": {"lat": 44.563808, "lon": -0.183489}}, {"text": "33405 SAINT-GENES-DE-BLAYE", "north_east": {"lat": 45.183218, "lon": -0.634347}, "code": "33405", "name": "SAINT-GENES-DE-BLAYE", "south_west": {"lat": 45.144871, "lon": -0.70139}}, {"text": "16424 YVIERS", "north_east": {"lat": 45.295693, "lon": 0.026163}, "code": "16424", "name": "YVIERS", "south_west": {"lat": 45.247503, "lon": -0.065824}}, {"text": "33280 MAZION", "north_east": {"lat": 45.183193, "lon": -0.590016}, "code": "33280", "name": "MAZION", "south_west": {"lat": 45.158142, "lon": -0.624145}}, {"text": "24345 QUEYSSAC", "north_east": {"lat": 44.933789, "lon": 0.561014}, "code": "24345", "name": "QUEYSSAC", "south_west": {"lat": 44.891986, "lon": 0.500417}}, {"text": "33301 NAUJAN-ET-POSTIAC", "north_east": {"lat": 44.803881, "lon": -0.152584}, "code": "33301", "name": "NAUJAN-ET-POSTIAC", "south_west": {"lat": 44.76939, "lon": -0.217066}}, {"text": "33242 LES LEVES-ET-THOUMEYRAGUES", "north_east": {"lat": 44.809138, "lon": 0.220342}, "code": "33242", "name": "LES LEVES-ET-THOUMEYRAGUES", "south_west": {"lat": 44.744996, "lon": 0.157637}}, {"text": "33294 MORIZES", "north_east": {"lat": 44.625224, "lon": -0.073184}, "code": "33294", "name": "MORIZES", "south_west": {"lat": 44.603245, "lon": -0.120339}}, {"text": "24501 SAINT-SEURIN-DE-PRATS", "north_east": {"lat": 44.84471, "lon": 0.096413}, "code": "24501", "name": "SAINT-SEURIN-DE-PRATS", "south_west": {"lat": 44.818536, "lon": 0.046664}}, {"text": "47253 SAINTE-MARTHE", "north_east": {"lat": 44.443987, "lon": 0.168433}, "code": "47253", "name": "SAINTE-MARTHE", "south_west": {"lat": 44.391017, "lon": 0.12615}}, {"text": "33088 CAMPS-SUR-L'ISLE", "north_east": {"lat": 45.029769, "lon": -0.022683}, "code": "33088", "name": "CAMPS-SUR-L'ISLE", "south_west": {"lat": 45.005634, "lon": -0.044586}}, {"text": "33168 FLAUJAGUES", "north_east": {"lat": 44.850065, "lon": 0.048172}, "code": "33168", "name": "FLAUJAGUES", "south_west": {"lat": 44.816283, "lon": 0.004845}}, {"text": "33528 LE TEMPLE", "north_east": {"lat": 44.904236, "lon": -0.879278}, "code": "33528", "name": "LE TEMPLE", "south_west": {"lat": 44.827586, "lon": -1.044211}}, {"text": "33034 BAYAS", "north_east": {"lat": 45.108988, "lon": -0.174566}, "code": "33034", "name": "BAYAS", "south_west": {"lat": 45.03865, "lon": -0.23243}}, {"text": "33026 BALIZAC", "north_east": {"lat": 44.525281, "lon": -0.398486}, "code": "33026", "name": "BALIZAC", "south_west": {"lat": 44.450064, "lon": -0.50415}}, {"text": "33132 COMPS", "north_east": {"lat": 45.072961, "lon": -0.583484}, "code": "33132", "name": "COMPS", "south_west": {"lat": 45.060517, "lon": -0.60555}}, {"text": "47232 SAINT-BARTHELEMY-D'AGENAIS", "north_east": {"lat": 44.546642, "lon": 0.401946}, "code": "47232", "name": "SAINT-BARTHELEMY-D'AGENAIS", "south_west": {"lat": 44.495402, "lon": 0.332137}}, {"text": "33050 BIEUJAC", "north_east": {"lat": 44.553102, "lon": -0.118052}, "code": "33050", "name": "BIEUJAC", "south_west": {"lat": 44.527057, "lon": -0.187528}}, {"text": "33451 SAINT-MICHEL-DE-FRONSAC", "north_east": {"lat": 44.947392, "lon": -0.281464}, "code": "33451", "name": "SAINT-MICHEL-DE-FRONSAC", "south_west": {"lat": 44.900768, "lon": -0.31926}}, {"text": "33380 SAINT-CAPRAIS-DE-BLAYE", "north_east": {"lat": 45.298015, "lon": -0.547723}, "code": "33380", "name": "SAINT-CAPRAIS-DE-BLAYE", "south_west": {"lat": 45.276538, "lon": -0.586104}}, {"text": "47005 ALLEMANS-DU-DROPT", "north_east": {"lat": 44.637887, "lon": 0.308721}, "code": "47005", "name": "ALLEMANS-DU-DROPT", "south_west": {"lat": 44.610794, "lon": 0.262682}}, {"text": "24200 GRAND-BRASSAC", "north_east": {"lat": 45.330052, "lon": 0.538788}, "code": "24200", "name": "GRAND-BRASSAC", "south_west": {"lat": 45.264749, "lon": 0.430261}}, {"text": "33070 BRACH", "north_east": {"lat": 45.068095, "lon": -0.894607}, "code": "33070", "name": "BRACH", "south_west": {"lat": 45.014288, "lon": -1.000671}}, {"text": "33206 ISLE-SAINT-GEORGES", "north_east": {"lat": 44.741629, "lon": -0.448049}, "code": "33206", "name": "ISLE-SAINT-GEORGES", "south_west": {"lat": 44.714319, "lon": -0.501592}}, {"text": "33452 SAINT-MICHEL-DE-RIEUFRET", "north_east": {"lat": 44.655973, "lon": -0.400678}, "code": "33452", "name": "SAINT-MICHEL-DE-RIEUFRET", "south_west": {"lat": 44.597771, "lon": -0.490948}}, {"text": "24460 SAINT-MEARD-DE-DRONE", "north_east": {"lat": 45.273695, "lon": 0.43844}, "code": "24460", "name": "SAINT-MEARD-DE-DRONE", "south_west": {"lat": 45.234653, "lon": 0.369548}}, {"text": "47235 SAINT-COLOMB-DE-LAUZUN", "north_east": {"lat": 44.63527, "lon": 0.510725}, "code": "47235", "name": "SAINT-COLOMB-DE-LAUZUN", "south_west": {"lat": 44.576695, "lon": 0.435839}}, {"text": "33230 LAPOUYADE", "north_east": {"lat": 45.151334, "lon": -0.243482}, "code": "33230", "name": "LAPOUYADE", "south_west": {"lat": 45.068278, "lon": -0.32315}}, {"text": "33390 SAINTE-COLOMBE", "north_east": {"lat": 44.889091, "lon": -0.048712}, "code": "33390", "name": "SAINTE-COLOMBE", "south_west": {"lat": 44.870038, "lon": -0.084157}}, {"text": "33060 BOMMES", "north_east": {"lat": 44.570508, "lon": -0.328637}, "code": "33060", "name": "BOMMES", "south_west": {"lat": 44.540292, "lon": -0.363126}}, {"text": "33442 SAINT-MARTIN-DE-LAYE", "north_east": {"lat": 45.052807, "lon": -0.20304}, "code": "33442", "name": "SAINT-MARTIN-DE-LAYE", "south_west": {"lat": 45.010736, "lon": -0.251126}}, {"text": "33515 SOULIGNAC", "north_east": {"lat": 44.715129, "lon": -0.256916}, "code": "33515", "name": "SOULIGNAC", "south_west": {"lat": 44.673186, "lon": -0.317651}}, {"text": "24054 BOUNIAGUES", "north_east": {"lat": 44.771699, "lon": 0.552892}, "code": "24054", "name": "BOUNIAGUES", "south_west": {"lat": 44.740786, "lon": 0.502252}}, {"text": "24104 CHANTERAC", "north_east": {"lat": 45.197332, "lon": 0.472084}, "code": "24104", "name": "CHANTERAC", "south_west": {"lat": 45.14431, "lon": 0.394332}}, {"text": "33384 SAINT-CHRISTOPHE-DES-BARDES", "north_east": {"lat": 44.913765, "lon": -0.096017}, "code": "33384", "name": "SAINT-CHRISTOPHE-DES-BARDES", "south_west": {"lat": 44.881317, "lon": -0.142167}}, {"text": "47309 TOMBEBOEUF", "north_east": {"lat": 44.56538, "lon": 0.501935}, "code": "47309", "name": "TOMBEBOEUF", "south_west": {"lat": 44.475549, "lon": 0.414824}}, {"text": "16347 SAINT-ROMAIN", "north_east": {"lat": 45.315036, "lon": 0.173497}, "code": "16347", "name": "SAINT-ROMAIN", "south_west": {"lat": 45.253365, "lon": 0.091309}}, {"text": "33346 PUYBARBAN", "north_east": {"lat": 44.566622, "lon": -0.052934}, "code": "33346", "name": "PUYBARBAN", "south_west": {"lat": 44.520519, "lon": -0.088712}}, {"text": "33086 CAMIAC-ET-SAINT-DENIS", "north_east": {"lat": 44.808653, "lon": -0.267546}, "code": "33086", "name": "CAMIAC-ET-SAINT-DENIS", "south_west": {"lat": 44.78252, "lon": -0.316004}}, {"text": "24193 GAGEAC-ET-ROUILLAC", "north_east": {"lat": 44.82559, "lon": 0.39625}, "code": "24193", "name": "GAGEAC-ET-ROUILLAC", "south_west": {"lat": 44.779382, "lon": 0.330125}}, {"text": "47074 COUTHURES-SUR-GARONNE", "north_east": {"lat": 44.540576, "lon": 0.087131}, "code": "47074", "name": "COUTHURES-SUR-GARONNE", "south_west": {"lat": 44.500906, "lon": 0.051031}}, {"text": "33269 MARGUERON", "north_east": {"lat": 44.784167, "lon": 0.297845}, "code": "33269", "name": "MARGUERON", "south_west": {"lat": 44.749324, "lon": 0.209315}}, {"text": "33163 FALEYRAS", "north_east": {"lat": 44.785724, "lon": -0.202616}, "code": "33163", "name": "FALEYRAS", "south_west": {"lat": 44.742353, "lon": -0.252679}}, {"text": "17366 SAINT-MARTIN-DE-COUX", "north_east": {"lat": 45.174021, "lon": -0.086479}, "code": "17366", "name": "SAINT-MARTIN-DE-COUX", "south_west": {"lat": 45.114595, "lon": -0.142255}}, {"text": "33375 SAINT-AUBIN-DE-BRANNE", "north_east": {"lat": 44.825131, "lon": -0.143977}, "code": "33375", "name": "SAINT-AUBIN-DE-BRANNE", "south_west": {"lat": 44.79825, "lon": -0.192367}}, {"text": "33499 LES SALLES-DE-CASTILLON", "north_east": {"lat": 44.929339, "lon": 0.034972}, "code": "33499", "name": "LES SALLES-DE-CASTILLON", "south_west": {"lat": 44.893326, "lon": -0.022213}}, {"text": "16020 AUBETERRE-SUR-DRONNE", "north_east": {"lat": 45.274417, "lon": 0.176905}, "code": "16020", "name": "AUBETERRE-SUR-DRONNE", "south_west": {"lat": 45.251288, "lon": 0.154375}}, {"text": "47114 GREZET-CAVAGNAN", "north_east": {"lat": 44.404622, "lon": 0.157718}, "code": "47114", "name": "GREZET-CAVAGNAN", "south_west": {"lat": 44.355505, "lon": 0.098067}}, {"text": "33406 SAINT-GENES-DE-CASTILLON", "north_east": {"lat": 44.914031, "lon": -0.033178}, "code": "33406", "name": "SAINT-GENES-DE-CASTILLON", "south_west": {"lat": 44.887001, "lon": -0.092126}}, {"text": "33418 SAINT-HILAIRE-DE-LA-NOAILLE", "north_east": {"lat": 44.626133, "lon": 0.033101}, "code": "33418", "name": "SAINT-HILAIRE-DE-LA-NOAILLE", "south_west": {"lat": 44.586309, "lon": -0.020658}}, {"text": "33305 LE NIZAN", "north_east": {"lat": 44.493263, "lon": -0.250761}, "code": "33305", "name": "LE NIZAN", "south_west": {"lat": 44.450865, "lon": -0.311393}}, {"text": "33461 SAINT-PHILIPPE-D'AIGUILLE", "north_east": {"lat": 44.927368, "lon": -0.014841}, "code": "33461", "name": "SAINT-PHILIPPE-D'AIGUILLE", "south_west": {"lat": 44.904948, "lon": -0.066592}}, {"text": "33010 ARCINS", "north_east": {"lat": 45.089508, "lon": -0.675283}, "code": "33010", "name": "ARCINS", "south_west": {"lat": 45.062502, "lon": -0.73792}}, {"text": "33345 LE PUY", "north_east": {"lat": 44.676819, "lon": 0.090759}, "code": "33345", "name": "LE PUY", "south_west": {"lat": 44.642827, "lon": 0.035779}}, {"text": "33197 GUILLOS", "north_east": {"lat": 44.575491, "lon": -0.47893}, "code": "33197", "name": "GUILLOS", "south_west": {"lat": 44.524202, "lon": -0.568149}}, {"text": "33257 LUGAIGNAC", "north_east": {"lat": 44.825451, "lon": -0.178315}, "code": "33257", "name": "LUGAIGNAC", "south_west": {"lat": 44.800369, "lon": -0.209707}}, {"text": "33299 MOURENS", "north_east": {"lat": 44.663273, "lon": -0.180407}, "code": "33299", "name": "MOURENS", "south_west": {"lat": 44.623749, "lon": -0.24475}}, {"text": "24292 MONTPEYROUX", "north_east": {"lat": 44.941109, "lon": 0.115108}, "code": "24292", "name": "MONTPEYROUX", "south_west": {"lat": 44.889987, "lon": 0.014862}}, {"text": "33331 PONDAURAT", "north_east": {"lat": 44.553529, "lon": -0.051795}, "code": "33331", "name": "PONDAURAT", "south_west": {"lat": 44.508468, "lon": -0.106198}}, {"text": "24272 MINZAC", "north_east": {"lat": 44.995809, "lon": 0.061333}, "code": "24272", "name": "MINZAC", "south_west": {"lat": 44.924888, "lon": 0.002542}}, {"text": "24523 SAUSSIGNAC", "north_east": {"lat": 44.824528, "lon": 0.340782}, "code": "24523", "name": "SAUSSIGNAC", "south_west": {"lat": 44.782813, "lon": 0.291234}}, {"text": "33472 SAINT-SAUVEUR-DE-PUYNORMAND", "north_east": {"lat": 45.008124, "lon": -0.008586}, "code": "33472", "name": "SAINT-SAUVEUR-DE-PUYNORMAND", "south_west": {"lat": 44.98569, "lon": -0.052192}}, {"text": "16049 BONNES", "north_east": {"lat": 45.262368, "lon": 0.176199}, "code": "16049", "name": "BONNES", "south_west": {"lat": 45.208578, "lon": 0.113398}}, {"text": "33371 SAINT-ANTOINE", "north_east": {"lat": 45.021325, "lon": -0.422037}, "code": "33371", "name": "SAINT-ANTOINE", "south_west": {"lat": 45.013354, "lon": -0.427221}}, {"text": "33087 CAMIRAN", "north_east": {"lat": 44.650667, "lon": -0.046279}, "code": "33087", "name": "CAMIRAN", "south_west": {"lat": 44.61852, "lon": -0.086749}}, {"text": "47150 LONGUEVILLE", "north_east": {"lat": 44.474266, "lon": 0.240869}, "code": "47150", "name": "LONGUEVILLE", "south_west": {"lat": 44.452035, "lon": 0.199827}}, {"text": "33537 UZESTE", "north_east": {"lat": 44.461137, "lon": -0.287757}, "code": "33537", "name": "UZESTE", "south_west": {"lat": 44.399287, "lon": -0.361533}}, {"text": "17260 NEUVICQ", "north_east": {"lat": 45.29998, "lon": -0.122337}, "code": "17260", "name": "NEUVICQ", "south_west": {"lat": 45.226774, "lon": -0.218528}}, {"text": "33400 SAINT-FERME", "north_east": {"lat": 44.725337, "lon": 0.096668}, "code": "33400", "name": "SAINT-FERME", "south_west": {"lat": 44.666295, "lon": 0.022343}}, {"text": "24276 MONESTIER", "north_east": {"lat": 44.798874, "lon": 0.368285}, "code": "24276", "name": "MONESTIER", "south_west": {"lat": 44.757322, "lon": 0.273394}}, {"text": "33491 SAINT-VIVIEN-DE-MONSEGUR", "north_east": {"lat": 44.640441, "lon": 0.155372}, "code": "33491", "name": "SAINT-VIVIEN-DE-MONSEGUR", "south_west": {"lat": 44.593143, "lon": 0.085595}}, {"text": "33306 NOAILLAC", "north_east": {"lat": 44.531664, "lon": 0.00579}, "code": "33306", "name": "NOAILLAC", "south_west": {"lat": 44.502302, "lon": -0.048585}}, {"text": "33502 SAUGON", "north_east": {"lat": 45.208155, "lon": -0.46178}, "code": "33502", "name": "SAUGON", "south_west": {"lat": 45.165831, "lon": -0.539719}}, {"text": "33189 GORNAC", "north_east": {"lat": 44.68449, "lon": -0.162083}, "code": "33189", "name": "GORNAC", "south_west": {"lat": 44.642093, "lon": -0.204156}}, {"text": "24549 THENAC", "north_east": {"lat": 44.768804, "lon": 0.401289}, "code": "24549", "name": "THENAC", "south_west": {"lat": 44.721387, "lon": 0.306602}}, {"text": "17129 COURPIGNAC", "north_east": {"lat": 45.345837, "lon": -0.471415}, "code": "17129", "name": "COURPIGNAC", "south_west": {"lat": 45.28618, "lon": -0.523632}}, {"text": "17033 LA BARDE", "north_east": {"lat": 45.15808, "lon": -0.028005}, "code": "17033", "name": "LA BARDE", "south_west": {"lat": 45.096458, "lon": -0.097413}}, {"text": "33285 MOMBRIER", "north_east": {"lat": 45.087946, "lon": -0.52734}, "code": "33285", "name": "MOMBRIER", "south_west": {"lat": 45.068697, "lon": -0.566875}}, {"text": "24349 RAZAC-DE-SAUSSIGNAC", "north_east": {"lat": 44.830987, "lon": 0.322144}, "code": "24349", "name": "RAZAC-DE-SAUSSIGNAC", "south_west": {"lat": 44.795459, "lon": 0.263565}}, {"text": "47003 AGNAC", "north_east": {"lat": 44.662475, "lon": 0.418051}, "code": "47003", "name": "AGNAC", "south_west": {"lat": 44.618125, "lon": 0.341653}}, {"text": "33414 SAINT-GERMAIN-DE-LA-RIVIERE", "north_east": {"lat": 44.956056, "lon": -0.308197}, "code": "33414", "name": "SAINT-GERMAIN-DE-LA-RIVIERE", "south_west": {"lat": 44.932256, "lon": -0.350603}}, {"text": "33512 SIGALENS", "north_east": {"lat": 44.490259, "lon": 0.007739}, "code": "33512", "name": "SIGALENS", "south_west": {"lat": 44.422937, "lon": -0.075834}}, {"text": "17386 SAINT-PIERRE-DU-PALAIS", "north_east": {"lat": 45.180301, "lon": -0.122518}, "code": "17386", "name": "SAINT-PIERRE-DU-PALAIS", "south_west": {"lat": 45.134367, "lon": -0.176145}}, {"text": "47257 SAINT-MARTIN-PETIT", "north_east": {"lat": 44.590188, "lon": 0.116576}, "code": "47257", "name": "SAINT-MARTIN-PETIT", "south_west": {"lat": 44.546107, "lon": 0.066571}}, {"text": "33191 GOURS", "north_east": {"lat": 45.024311, "lon": 0.041627}, "code": "33191", "name": "GOURS", "south_west": {"lat": 44.976357, "lon": 0.005546}}, {"text": "24368 SAINT-ANTOINE-CUMOND", "north_east": {"lat": 45.264279, "lon": 0.233466}, "code": "24368", "name": "SAINT-ANTOINE-CUMOND", "south_west": {"lat": 45.223747, "lon": 0.169285}}, {"text": "33367 SAINT-ANDRE-DU-BOIS", "north_east": {"lat": 44.62541, "lon": -0.159098}, "code": "33367", "name": "SAINT-ANDRE-DU-BOIS", "south_west": {"lat": 44.589943, "lon": -0.225106}}, {"text": "47135 LAPARADE", "north_east": {"lat": 44.438759, "lon": 0.47126}, "code": "47135", "name": "LAPARADE", "south_west": {"lat": 44.378472, "lon": 0.41333}}, {"text": "24466 SAINT-MICHEL-DE-MONTAIGNE", "north_east": {"lat": 44.895641, "lon": 0.050924}, "code": "24466", "name": "SAINT-MICHEL-DE-MONTAIGNE", "south_west": {"lat": 44.863563, "lon": -0.006176}}, {"text": "17055 BOSCAMNANT", "north_east": {"lat": 45.211771, "lon": -0.030145}, "code": "17055", "name": "BOSCAMNANT", "south_west": {"lat": 45.173912, "lon": -0.107926}}, {"text": "24285 MONTAGNAC-LA-CREMPSE", "north_east": {"lat": 45.008837, "lon": 0.587435}, "code": "24285", "name": "MONTAGNAC-LA-CREMPSE", "south_west": {"lat": 44.948625, "lon": 0.487455}}, {"text": "47151 LOUBES-BERNAC", "north_east": {"lat": 44.763455, "lon": 0.347941}, "code": "47151", "name": "LOUBES-BERNAC", "south_west": {"lat": 44.707111, "lon": 0.271271}}, {"text": "33078 CABARA", "north_east": {"lat": 44.843399, "lon": -0.146683}, "code": "33078", "name": "CABARA", "south_west": {"lat": 44.817136, "lon": -0.173505}}, {"text": "33421 SAINT-JEAN-DE-BLAIGNAC", "north_east": {"lat": 44.8229, "lon": -0.110187}, "code": "33421", "name": "SAINT-JEAN-DE-BLAIGNAC", "south_west": {"lat": 44.793793, "lon": -0.154911}}, {"text": "33500 SAMONAC", "north_east": {"lat": 45.083892, "lon": -0.559087}, "code": "33500", "name": "SAMONAC", "south_west": {"lat": 45.057711, "lon": -0.586146}}, {"text": "33302 NEAC", "north_east": {"lat": 44.95647, "lon": -0.153544}, "code": "33302", "name": "NEAC", "south_west": {"lat": 44.930416, "lon": -0.208392}}, {"text": "24316 PARCOUL", "north_east": {"lat": 45.21208, "lon": 0.066402}, "code": "24316", "name": "PARCOUL", "south_west": {"lat": 45.166671, "lon": 0.000226}}, {"text": "24246 LUNAS", "north_east": {"lat": 44.953659, "lon": 0.431307}, "code": "24246", "name": "LUNAS", "south_west": {"lat": 44.899934, "lon": 0.367992}}, {"text": "24211 ISSAC", "north_east": {"lat": 45.043916, "lon": 0.490399}, "code": "24211", "name": "ISSAC", "south_west": {"lat": 44.982845, "lon": 0.410537}}, {"text": "24159 ECHOURGNAC", "north_east": {"lat": 45.174284, "lon": 0.277241}, "code": "24159", "name": "ECHOURGNAC", "south_west": {"lat": 45.092517, "lon": 0.179301}}, {"text": "33551 VILLENEUVE", "north_east": {"lat": 45.095196, "lon": -0.615004}, "code": "33551", "name": "VILLENEUVE", "south_west": {"lat": 45.064345, "lon": -0.668078}}, {"text": "33358 ROMAGNE", "north_east": {"lat": 44.783579, "lon": -0.187896}, "code": "33358", "name": "ROMAGNE", "south_west": {"lat": 44.745298, "lon": -0.219134}}, {"text": "47278 SAINT-SERNIN", "north_east": {"lat": 44.728267, "lon": 0.286948}, "code": "47278", "name": "SAINT-SERNIN", "south_west": {"lat": 44.679397, "lon": 0.200635}}, {"text": "33364 SAILLANS", "north_east": {"lat": 44.972323, "lon": -0.247376}, "code": "33364", "name": "SAILLANS", "south_west": {"lat": 44.93733, "lon": -0.295747}}, {"text": "33102 CASSEUIL", "north_east": {"lat": 44.606255, "lon": -0.097392}, "code": "33102", "name": "CASSEUIL", "south_west": {"lat": 44.570473, "lon": -0.139061}}, {"text": "33178 GAJAC", "north_east": {"lat": 44.455257, "lon": -0.10446}, "code": "33178", "name": "GAJAC", "south_west": {"lat": 44.416581, "lon": -0.168035}}, {"text": "47112 GRATELOUP-SAINT-GAYRAND", "north_east": {"lat": 44.443073, "lon": 0.432821}, "code": "47112", "name": "GRATELOUP-SAINT-GAYRAND", "south_west": {"lat": 44.39045, "lon": 0.356667}}, {"text": "24165 EYGURANDE-ET-GARDEDEUIL", "north_east": {"lat": 45.120929, "lon": 0.163174}, "code": "24165", "name": "EYGURANDE-ET-GARDEDEUIL", "south_west": {"lat": 45.035821, "lon": 0.070044}}, {"text": "24494 SAINT-REMY", "north_east": {"lat": 44.978649, "lon": 0.236757}, "code": "24494", "name": "SAINT-REMY", "south_west": {"lat": 44.928996, "lon": 0.139663}}, {"text": "33489 SAINT-VIVIEN-DE-BLAYE", "north_east": {"lat": 45.115164, "lon": -0.480649}, "code": "33489", "name": "SAINT-VIVIEN-DE-BLAYE", "south_west": {"lat": 45.095344, "lon": -0.53052}}, {"text": "17378 SAINT-PALAIS-DE-NEGRIGNAC", "north_east": {"lat": 45.293652, "lon": -0.156042}, "code": "17378", "name": "SAINT-PALAIS-DE-NEGRIGNAC", "south_west": {"lat": 45.248515, "lon": -0.253203}}, {"text": "33488 SAINT-VINCENT-DE-PERTIGNAS", "north_east": {"lat": 44.822736, "lon": -0.091069}, "code": "33488", "name": "SAINT-VINCENT-DE-PERTIGNAS", "south_west": {"lat": 44.778003, "lon": -0.135243}}, {"text": "33098 CARDAN", "north_east": {"lat": 44.693734, "lon": -0.301664}, "code": "33098", "name": "CARDAN", "south_west": {"lat": 44.672509, "lon": -0.344071}}, {"text": "24148 CUNEGES", "north_east": {"lat": 44.797232, "lon": 0.397275}, "code": "24148", "name": "CUNEGES", "south_west": {"lat": 44.762499, "lon": 0.357303}}, {"text": "47013 ARGENTON", "north_east": {"lat": 44.402341, "lon": 0.104591}, "code": "47013", "name": "ARGENTON", "south_west": {"lat": 44.363995, "lon": 0.027533}}, {"text": "33045 BELVES-DE-CASTILLON", "north_east": {"lat": 44.890637, "lon": 0.001705}, "code": "33045", "name": "BELVES-DE-CASTILLON", "south_west": {"lat": 44.865506, "lon": -0.052502}}, {"text": "47277 SAINT-SAUVEUR-DE-MEILHAN", "north_east": {"lat": 44.519483, "lon": 0.013361}, "code": "47277", "name": "SAINT-SAUVEUR-DE-MEILHAN", "south_west": {"lat": 44.459786, "lon": -0.017594}}, {"text": "24032 BEAURONNE", "north_east": {"lat": 45.132295, "lon": 0.389382}, "code": "24032", "name": "BEAURONNE", "south_west": {"lat": 45.067504, "lon": 0.331736}}, {"text": "47204 PEYRIERE", "north_east": {"lat": 44.59298, "lon": 0.333975}, "code": "47204", "name": "PEYRIERE", "south_west": {"lat": 44.563162, "lon": 0.277227}}, {"text": "33288 MONPRIMBLANC", "north_east": {"lat": 44.643537, "lon": -0.228092}, "code": "33288", "name": "MONPRIMBLANC", "south_west": {"lat": 44.62112, "lon": -0.279765}}, {"text": "16346 SAINT-QUENTIN-DE-CHALAIS", "north_east": {"lat": 45.270838, "lon": 0.100204}, "code": "16346", "name": "SAINT-QUENTIN-DE-CHALAIS", "south_west": {"lat": 45.219741, "lon": 0.053336}}, {"text": "47199 PARDAILLAN", "north_east": {"lat": 44.695916, "lon": 0.307291}, "code": "47199", "name": "PARDAILLAN", "south_west": {"lat": 44.635994, "lon": 0.22801}}, {"text": "33531 TIZAC-DE-CURTON", "north_east": {"lat": 44.838447, "lon": -0.225851}, "code": "33531", "name": "TIZAC-DE-CURTON", "south_west": {"lat": 44.811749, "lon": -0.259583}}, {"text": "47084 DOUZAINS", "north_east": {"lat": 44.651108, "lon": 0.583423}, "code": "47084", "name": "DOUZAINS", "south_west": {"lat": 44.620958, "lon": 0.511731}}, {"text": "33391 SAINT-COME", "north_east": {"lat": 44.439037, "lon": -0.149245}, "code": "33391", "name": "SAINT-COME", "south_west": {"lat": 44.411442, "lon": -0.200919}}, {"text": "24288 MONTAZEAU", "north_east": {"lat": 44.927132, "lon": 0.155877}, "code": "24288", "name": "MONTAZEAU", "south_west": {"lat": 44.875896, "lon": 0.104782}}, {"text": "24511 SAINT-VINCENT-JALMOUTIERS", "north_east": {"lat": 45.211554, "lon": 0.229697}, "code": "24511", "name": "SAINT-VINCENT-JALMOUTIERS", "south_west": {"lat": 45.159755, "lon": 0.165357}}, {"text": "33024 BAGAS", "north_east": {"lat": 44.632248, "lon": -0.034529}, "code": "33024", "name": "BAGAS", "south_west": {"lat": 44.604353, "lon": -0.065945}}, {"text": "24536 SINGLEYRAC", "north_east": {"lat": 44.768631, "lon": 0.480642},